"Station Name","Province","Latitude","Longitude","Elevation","Climate ID","WMO Identifier","TC Identifier","First Year","Last Year","HLY First Year","HLY Last Year","DLY First Year","DLY Last Year","MLY First Year","MLY Last Year"
"(AE) BOW SUMMIT","ALBERTA","51.70","-116.47","2080.00","3050PPF","","","1998","2007","","","1998","2007","1998","2007"
"100 MILE HOUSE","BRITISH COLUMBIA","51.65","-121.27","929.60","1095790","","","1957","1959","","","1957","1959","1957","1959"
"100 MILE HOUSE","BRITISH COLUMBIA","51.65","-121.30","1059.20","1165791","","","1970","1999","","","1970","1999","1970","1999"
"100 MILE HOUSE 6NE","BRITISH COLUMBIA","51.68","-121.22","928.00","1165793","","","1987","2022","","","1987","2022","1987","2007"
"108 MILE HOUSE","BRITISH COLUMBIA","51.75","-121.33","957.10","1095796","","","1970","1973","","","1970","1973","1970","1973"
"108 MILE HOUSE ABEL LAKE","BRITISH COLUMBIA","51.62","-121.26","1005.00","109E7R6","","","1987","2020","","","1987","2020","1987","2007"
"108 MILE HOUSE WATSON LAKE","BRITISH COLUMBIA","51.70","-121.33","890.00","116N7R6","","","1987","1989","","","1987","1989","1987","1989"
"150 MILE HOUSE","BRITISH COLUMBIA","52.12","-121.93","737.60","1095820","","","1947","1963","","","1947","1963","1947","1963"
"150 MILE HOUSE 7N","BRITISH COLUMBIA","52.22","-122.00","883.90","1095821","","","1969","1975","","","1969","1975","1969","1975"
"26 MILE DEPOT","NEWFOUNDLAND","48.42","-57.07","266.70","8403990","","","1962","1962","","","1962","1962","1962","1962"
"70 MILE HOUSE","BRITISH COLUMBIA","51.30","-121.40","1079.90","1167191","","","1974","1987","","","1974","1987","1974","1987"
"ABBEY","SASKATCHEWAN","50.70","-108.78","694.90","4020020","","","1956","2008","","","1956","2008","1956","2007"
"ABBOTSFORD","BRITISH COLUMBIA","49.02","-122.33","","1100015","","","1956","1956","","","1956","1956","1956","1956"
"ABBOTSFORD A","BRITISH COLUMBIA","49.03","-122.36","59.10","1100031","71108","YXX","2011","2022","2011","2022","2012","2022","",""
"ABBOTSFORD A","BRITISH COLUMBIA","49.03","-122.36","59.10","1100030","71108","YXX","1944","2012","1953","2012","1944","2012","1944","2012"
"ABBOTSFORD A","BRITISH COLUMBIA","49.03","-122.36","59.10","1100032","","YXX","2016","2022","2016","2022","2018","2022","",""
"ABBOTSFORD EAST","BRITISH COLUMBIA","49.03","-122.25","7.60","1100035","","","1960","1962","","","1960","1962","1960","1962"
"ABBOTSFORD KING ROAD","BRITISH COLUMBIA","49.03","-122.30","61.00","1100037","","","1968","1973","","","1968","1973","1968","1973"
"ABBOTSFORD UPPER SUMAS","BRITISH COLUMBIA","49.05","-122.27","9.10","1100040","","","1935","1946","","","1935","1946","1935","1946"
"ABEE AGDM","ALBERTA","54.28","-112.97","664.00","3010010","71285","XAF","1990","2022","1990","2022","2002","2022","2002","2007"
"ABERCORN","QUEBEC","45.03","-72.67","149.40","7020040","","","1950","1985","","","1950","1985","1950","1985"
"ABERCROMBIE POINT","NOVA SCOTIA","45.65","-62.72","10.70","8200015","","","1973","1978","","","1973","1978","1973","1978"
"ABERDEEN","SASKATCHEWAN","52.40","-106.17","518.20","4050037","","","1987","1991","","","1987","1991","1987","1991"
"ABERFELDIE","BRITISH COLUMBIA","49.50","-115.37","804.70","1150060","","","1950","1982","","","1950","1982","1950","1982"
"ABITIBI CAMP 11","ONTARIO","48.93","-89.35","442.00","6040010","","","1978","1983","","","1978","1983","1978","1981"
"ABITIBI CAMP 11","ONTARIO","48.85","-89.12","491.00","6040011","","","1983","1988","","","1983","1988","1983","1988"
"ABITIBI CAMP 228","ONTARIO","48.93","-89.25","472.40","6040018","","","1969","1978","","","1969","1978","1969","1978"
"ABITIBI CAMP 230","ONTARIO","49.35","-89.37","457.20","6040020","","","1969","1991","","","1969","1991","1969","1991"
"ABITIBI CAMP 300","ONTARIO","49.63","-89.75","426.70","6040022","","","1978","1986","","","1978","1986","1978","1986"
"ABITIBI CANYON","ONTARIO","49.88","-81.57","204.20","6070027","","","1931","1963","","","1931","1963","1931","1963"
"ABITIBI POST","QUEBEC","48.72","-79.37","259.10","7090050","","","1896","1936","","","1896","1936","1896","1936"
"ACADIA FOREST EXP ST","NEW BRUNSWICK","45.99","-66.36","54.00","8100100","","","1955","2010","","","1955","2010","1955","2006"
"ACADIA VALLEY","ALBERTA","51.18","-110.23","732.00","3020018","","","1980","1991","","","1980","1991","1980","1991"
"ACADIA VALLEY","ALBERTA","51.07","-110.32","735.00","3020035","71048","PAC","2009","2022","2009","2022","2009","2022","",""
"ACADIA VALLEY CDA EPF","ALBERTA","51.07","-110.13","","3020022","","","1965","1965","","","1965","1965","1965","1965"
"ACADIA VALLEY EXP ST","ALBERTA","51.08","-110.28","712.90","3020020","","","1954","1962","","","1954","1962","1954","1962"
"ACADIA VALLEY MACTAVISH","ALBERTA","51.20","-110.17","743.70","3020025","","","1988","2005","","","1988","2005","1988","2005"
"ACADIA VALLEY VANDYNE","ALBERTA","51.03","-110.30","708.60","3020031","","","1988","1998","","","1988","1998","1988","1998"
"ACADIEVILLE","NEW BRUNSWICK","46.73","-65.28","61.00","8100105","","","1980","1995","","","1980","1995","1980","1995"
"ACME CDA EPF","ALBERTA","51.50","-113.42","905.00","3020040","","","1953","1982","","","1953","1982","1953","1982"
"ACTIVE PASS","BRITISH COLUMBIA","48.87","-123.28","4.00","1010066","","","1984","1996","","","1984","1996","1984","1996"
"ACTON BEARDMORE","ONTARIO","43.63","-80.03","320.00","6150039","","","1966","1967","","","1966","1967","1966","1967"
"ACTON MONITOR STN","ONTARIO","43.65","-80.05","411.50","6140041","","","1966","1971","","","1966","1971","1966","1971"
"ACTON VALE","QUEBEC","45.65","-72.57","94.50","7020055","","","1964","1973","","","1964","1973","1964","1973"
"ADAIR LO","ALBERTA","59.17","-118.33","365.80","3070043","","","1968","2011","","","1968","2011","1968","2007"
"ADAMS CREEK LO","ALBERTA","53.72","-118.57","2209.80","3060045","","","1962","2011","","","1962","2011","1962","2007"
"ADAMS LAKE SKWAAM BAY","BRITISH COLUMBIA","51.08","-119.80","457.20","1160075","","","1972","1975","","","1972","1975","1972","1975"
"ADDENBROKE ISLAND","BRITISH COLUMBIA","51.60","-127.86","21.30","1060080","","WCZ","1978","2022","1994","2001","1978","2022","1978","2007"
"ADEN","ALBERTA","49.05","-111.32","1036.30","3040049","","","1962","2000","","","1962","2000","1962","2000"
"ADRA","BRITISH COLUMBIA","49.73","-119.58","1002.50","1120090","","","1928","1953","","","1928","1953","1928","1953"
"AGASSIZ CDA","BRITISH COLUMBIA","49.24","-121.76","15.00","1100120","","","1889","2022","","","1889","2022","1889","2007"
"AGASSIZ MOUNTAIN INSTITUTE","BRITISH COLUMBIA","49.27","-121.83","30.00","1100130","","","1986","1995","","","1986","1995","1986","1995"
"AGASSIZ RCS","BRITISH COLUMBIA","49.24","-121.76","19.30","1100119","71113","WZA","1988","2022","1994","2022","1988","2022","1988","2006"
"AGNEW MINE","ONTARIO","46.43","-81.62","305.10","6060070","","","1978","1983","","","1978","1983","1978","1983"
"AGUASABON","ONTARIO","48.78","-87.17","189.00","6040081","","","1950","1972","","","1950","1972","1950","1972"
"AIGREMONT","QUEBEC","49.30","-73.85","403.90","7060070","","","1973","1982","","","1973","1982","1973","1980"
"AILSA CRAIG","ONTARIO","43.15","-81.53","228.60","6140091","","","1968","1972","","","1968","1972","1968","1972"
"AIRDRIE","ALBERTA","51.32","-113.88","1082.00","3030060","","","1961","1963","","","1961","1963","1961","1963"
"AISHIHIK A","YUKON TERRITORY","61.65","-137.48","966.20","2100100","","","1943","1966","1953","1966","1943","1966","1943","1966"
"AIYANSH","BRITISH COLUMBIA","55.23","-129.02","228.60","1070150","","","1924","1971","","","1924","1971","1924","1971"
"AIYANSH 2SE","BRITISH COLUMBIA","55.18","-129.05","213.40","1070154","","","1974","1985","","","1974","1985","1974","1985"
"AKAMINA PASS","ALBERTA","49.03","-114.05","1800.00","30500FR","","","2002","2007","","","2002","2007","2003","2007"
"AKLAVIK A","NORTHWEST TERRITORIES","68.22","-135.01","6.40","2200105","","YKD","2014","2022","2014","2022","2018","2022","",""
"AKLAVIK A","NORTHWEST TERRITORIES","68.22","-135.01","6.40","2200100","","YKD","1926","2014","1953","2014","1926","2014","1926","2007"
"AKLAVIK A","NORTHWEST TERRITORIES","68.22","-135.01","6.40","2200101","","YKD","2014","2022","2014","2022","","","",""
"AKLAVIK RADIOSONDE","NORTHWEST TERRITORIES","68.23","-135.00","9.10","2200200","","","1953","1960","","","1953","1960","1953","1960"
"AKULIVIK A","QUEBEC","60.82","-78.15","23.20","7100071","","YKO","2015","2022","2015","2022","","","",""
"AKULIVIK A","QUEBEC","60.82","-78.15","23.20","7100075","","YKO","1992","2015","1992","2015","","","",""
"AKULIVIK A","QUEBEC","60.82","-78.15","23.20","7100072","","YKO","2018","2022","2018","2022","2018","2022","",""
"ALAMEDA CDA EPF","SASKATCHEWAN","49.25","-102.28","580.00","4010080","","","1894","1965","","","1894","1965","1894","1965"
"ALBANEL","QUEBEC","48.88","-72.45","152.00","7060080","","","1922","1991","","","1922","1991","1922","1991"
"ALBANY","PRINCE EDWARD ISLAND","46.27","-63.58","33.50","8300060","","","1984","1993","","","1984","1993","1984","1993"
"ALBERNI BEAVER CREEK","BRITISH COLUMBIA","49.37","-124.93","91.40","1030180","","","1894","1959","","","1894","1959","1894","1959"
"ALBERNI CITY RESERVOIR","BRITISH COLUMBIA","49.27","-124.78","64.60","1030185","","","1962","1963","","","1962","1963","1962","1963"
"ALBERNI LUPSI CUPSI","BRITISH COLUMBIA","49.25","-124.82","9.10","1030210","","","1948","1974","","","1948","1974","1948","1974"
"ALBERNI MCCOY LAKE","BRITISH COLUMBIA","49.28","-124.88","42.70","1030220","","","1958","1973","","","1958","1973","1958","1973"
"ALBERNI ROBERTSON CREEK","BRITISH COLUMBIA","49.34","-124.98","73.80","1030230","","","1961","2022","","","1961","2022","1961","2007"
"ALBERT HALL AGCM","ALBERTA","53.11","-111.18","658.00","3010060","71005","PAH","2007","2022","2007","2022","2007","2022","2007","2007"
"ALBERT HEAD","BRITISH COLUMBIA","48.40","-123.48","17.00","1010235","","","1971","1995","","","1971","1995","1971","1995"
"ALBERTON","PRINCE EDWARD ISLAND","46.85","-64.02","3.00","8300080","","","1969","2008","","","1969","2008","1969","2006"
"ALBERTON","ONTARIO","43.18","-80.05","215.00","6150060","","","1994","2008","","","1994","2008","1994","2006"
"ALBERTON SNOW","PRINCE EDWARD ISLAND","46.81","-64.06","8.50","8300085","","","2012","2019","","","2012","2019","",""
"ALBERTVILLE","QUEBEC","48.30","-67.35","335.30","7050085","","","1963","1985","","","1963","1985","1963","1985"
"ALBION","ONTARIO","43.93","-79.83","274.30","6150100","","","1956","2000","","","1956","2000","1956","2000"
"ALBION FIELD CENTRE","ONTARIO","43.92","-79.83","281.90","6150103","","","1969","2001","","","1969","2001","1969","2001"
"ALBREDA","BRITISH COLUMBIA","52.67","-119.20","873.30","1170237","","","1973","1977","","","1973","1977","1973","1977"
"ALDER FLATS LO","ALBERTA","52.80","-114.82","1075.90","3010080","","","1952","1984","","","1952","1984","1952","1984"
"ALDERGROVE","BRITISH COLUMBIA","49.12","-122.48","76.20","1100240","","","1953","1980","","","1953","1980","1953","1980"
"ALDERGROVE 2","BRITISH COLUMBIA","49.03","-122.48","60.00","1100241","","","1980","1989","","","1980","1989","1980","1989"
"ALDERGROVE 48 AVENUE","BRITISH COLUMBIA","49.08","-122.52","85.00","1100245","","","1987","1991","","","1987","1991","1987","1991"
"ALDERGROVE CENTRE","BRITISH COLUMBIA","49.05","-122.47","60.00","1100KM0","","","1986","1989","","","1986","1989","1986","1989"
"ALDERSHOT","ONTARIO","43.32","-79.87","144.80","6150135","","","1947","1977","","","1947","1977","1947","1977"
"ALERT","NUNAVUT","82.52","-62.28","30.50","2400300","","WLT","1950","2006","1953","2006","1950","2006","1950","2006"
"ALERT A","NUNAVUT","82.52","-62.28","30.50","2400302","","YLT","1988","2022","1988","2022","","","",""
"ALERT BAY","BRITISH COLUMBIA","50.58","-126.93","59.40","1020270","","","1913","2006","1954","1994","1913","2006","1913","1994"
"ALERT CLIMATE","NUNAVUT","82.50","-62.33","65.40","2400305","71355","ZLT","2004","2022","2004","2022","2004","2022","2005","2007"
"ALERT UA","NUNAVUT","82.50","-62.33","65.40","2400306","71082","","1997","2022","","","1997","2022","1997","2007"
"ALEXANDER","MANITOBA","49.83","-100.30","427.00","5010033","","","1979","1999","","","1979","1999","1979","1999"
"ALEXANDRIA","ONTARIO","45.32","-74.61","77.00","6100166","","TAL","2003","2006","2003","2006","2003","2006","",""
"ALEXIS CREEK","BRITISH COLUMBIA","52.10","-123.62","853.40","1080283","","","1954","1956","","","1954","1956","1954","1956"
"ALEXIS CREEK","BRITISH COLUMBIA","52.13","-123.33","723.90","1080285","","","1919","1963","","","1919","1963","1919","1963"
"ALEXIS CREEK","BRITISH COLUMBIA","52.08","-123.28","800.10","1080284","","","1973","1995","","","1973","1995","1973","1995"
"ALEXIS CREEK TAUTRI CRK","BRITISH COLUMBIA","52.55","-123.18","1219.20","1080289","","","1961","1983","","","1961","1983","1961","1983"
"ALEZA LAKE","BRITISH COLUMBIA","54.12","-122.07","624.80","1090300","","","1952","1980","","","1952","1980","1952","1980"
"ALFRED","ONTARIO","45.56","-74.88","57.00","6100176","","TAE","2003","2007","2003","2007","2003","2007","",""
"ALFRED","ONTARIO","45.55","-74.88","54.00","6100172","","","1984","1986","","","1984","1986","1984","1985"
"ALFRED AUTOMATIC CLIMATE STATION","ONTARIO","45.55","-74.88","54.00","6100174","","","1989","1989","","","1989","1989","1989","1989"
"ALGAR LO","ALBERTA","56.12","-111.78","780.30","3060110","","","1959","2011","","","1959","2011","1959","2007"
"ALGONQUIN PARK","ONTARIO","45.58","-78.55","432.50","6080189","","","1917","1960","","","1917","1960","1917","1960"
"ALGONQUIN PARK EAST","ONTARIO","45.53","-78.27","411.50","6080191","","","1961","1972","","","1961","1972","1961","1972"
"ALGONQUIN PARK EAST GATE","ONTARIO","45.53","-78.27","397.00","6080192","71581","TNK","2004","2022","2004","2022","2004","2022","2005","2006"
"ALGONQUIN PARK WEST","ONTARIO","45.33","-78.85","426.70","6080193","","","1961","1972","","","1961","1972","1961","1972"
"ALICE ARM","BRITISH COLUMBIA","55.68","-129.50","314.20","1060330","","","1948","1964","","","1948","1964","1948","1964"
"ALICE ARM","BRITISH COLUMBIA","55.47","-129.47","1.50","1060331","","","1973","1978","","","1973","1978","1973","1978"
"ALIDA","SASKATCHEWAN","49.45","-101.80","585.20","4010100","","","1989","2004","","","1989","2004","1989","2004"
"ALIX","ALBERTA","52.37","-113.30","853.40","3020121","","","1970","1973","","","1970","1973","1970","1973"
"ALIX","ALBERTA","52.38","-113.17","787.90","3020120","","","1905","1951","","","1905","1951","1905","1951"
"ALKALI LAKE","BRITISH COLUMBIA","51.78","-122.28","","1090335","","","1910","1922","","","1910","1922","1910","1922"
"ALLAN PARK","ONTARIO","44.17","-80.93","285.00","6110210","","","1975","1976","","","1975","1976","1975","1976"
"ALLIANCE","ALBERTA","52.43","-111.78","715.70","3010160","","","1916","1982","","","1916","1982","1916","1982"
"ALLIANCE AGCM","ALBERTA","52.32","-111.78","737.00","3010162","71006","PAA","2007","2022","2007","2022","2007","2022","2007","2007"
"ALLIANCE GREENVIEW","ALBERTA","52.38","-111.80","731.50","3010164","","","1960","1962","","","1960","1962","1960","1962"
"ALLIANCE SOUTH","ALBERTA","52.42","-111.78","713.20","3010175","","","1982","2000","","","1982","2000","1982","2000"
"ALLISON PASS","BRITISH COLUMBIA","49.13","-120.83","1341.10","1110350","","","1958","1972","","","1958","1972","1958","1972"
"ALLISON PASS DOH","BRITISH COLUMBIA","49.12","-120.87","1339.90","1110352","","","1974","1989","","","1974","1989","1974","1989"
"ALLISTON","PRINCE EDWARD ISLAND","46.07","-62.60","61.00","8300100","","","1936","2016","","","1936","2016","1936","2006"
"ALLISTON","ONTARIO","44.15","-79.85","213.40","6110216","","","1953","1975","","","1953","1975","1953","1975"
"ALLISTON NELSON","ONTARIO","44.15","-79.87","221.00","6110218","","","1973","2008","","","1973","2008","1973","2006"
"ALLISTON SNOW","PRINCE EDWARD ISLAND","46.07","-62.60","61.00","8300102","","","2008","2009","","","2008","2009","",""
"ALLOA","ONTARIO","43.72","-79.87","262.10","6150224","","","1951","1954","","","1951","1954","1951","1954"
"ALMA","NEW BRUNSWICK","45.60","-64.95","42.70","8100200","","","1950","2011","","","1950","2011","1950","2006"
"ALMASIPPI","MANITOBA","49.55","-98.20","274.30","5020036","","","1902","1925","","","1902","1925","1902","1925"
"ALMONTE","ONTARIO","45.18","-76.23","125.00","6100226","","","1912","1980","","","1912","1980","1912","1980"
"ALONSA","MANITOBA","50.83","-99.05","274.30","5040037","","","1980","2007","","","1980","2007","1980","2007"
"ALOUETTE LAKE","BRITISH COLUMBIA","49.28","-122.48","117.30","1100360","","","1924","1982","","","1924","1982","1924","1982"
"ALOUETTE POWER HOUSE","BRITISH COLUMBIA","49.37","-122.32","91.40","1100370","","","1935","1949","","","1935","1949","1935","1949"
"ALSASK","SASKATCHEWAN","51.38","-110.00","701.00","4040120","","","1913","1951","","","1913","1951","1913","1951"
"ALSASK","ALBERTA","51.38","-110.03","701.00","3020220","","","1957","1965","","","1957","1965","1957","1965"
"ALSASK","SASKATCHEWAN","51.42","-109.90","661.40","4020121","","","1970","1970","","","1970","1970","1970","1970"
"ALSASK HARDENE","SASKATCHEWAN","51.33","-109.85","658.40","4020130","","","1959","1997","","","1959","1997","1959","1997"
"ALTA LAKE","BRITISH COLUMBIA","50.15","-122.95","667.50","1040390","","","1950","1976","1953","1976","1950","1976","1950","1976"
"ALTA LAKE 2","BRITISH COLUMBIA","50.15","-122.98","640.10","1040420","","","1931","1969","","","1931","1969","1931","1969"
"ALTA LAKE NORTHAIR MINE","BRITISH COLUMBIA","50.12","-123.10","1005.80","1040400","","","1975","1987","","","1975","1987","1975","1987"
"ALTAWAN","ALBERTA","49.25","-110.01","944.90","3040223","","","1965","2007","","","1965","2007","1965","2007"
"ALTON","ONTARIO","43.85","-80.08","401.40","6150243","","","1887","1964","","","1887","1964","1887","1963"
"ALTONA","MANITOBA","49.10","-97.55","247.80","5020040","","","1948","2008","","","1948","2008","1948","2007"
"ALTONA CFAM","MANITOBA","49.10","-97.55","247.50","5020050","","","1959","1968","","","1959","1968","1959","1968"
"ALTONA SOUTH","MANITOBA","49.05","-97.57","249.90","5020054","","","1984","1989","","","1984","1989","1984","1989"
"ALVINSTON","ONTARIO","42.87","-81.88","221.00","6120250","","","1965","1969","","","1965","1969","1965","1969"
"AMARANTH","MANITOBA","50.63","-98.72","259.10","5040060","","","1980","2004","","","1980","2004","1980","2004"
"AMBER LO","ALBERTA","59.18","-119.45","579.10","3070230","","","1967","2011","","","1967","2011","1967","2007"
"AMHERST (AUT)","NOVA SCOTIA","45.85","-64.27","23.00","8200091","","WAH","1992","2005","1994","2005","1992","2005","",""
"AMHERST ISLAND CDA EPF","QUEBEC","47.22","-61.97","15.20","7050100","","","1957","1962","","","1957","1962","1959","1962"
"AMHERSTBURG","ONTARIO","42.10","-83.09","182.00","6130257","","","1988","2022","","","1988","2022","1988","2006"
"AMISK","ALBERTA","52.68","-111.12","701.00","3010232","","","1967","1974","","","1967","1974","1967","1974"
"AMOS","QUEBEC","48.57","-78.13","310.00","7090120","","","1913","2000","","","1913","2000","1913","2000"
"AMPHITRITE POINT","BRITISH COLUMBIA","48.92","-125.54","26.50","1030426","","WAN","1980","2010","1980","2001","1980","2010","1980","1999"
"AMPHITRITE POINT","BRITISH COLUMBIA","48.92","-125.53","10.70","1030425","","","1958","1980","","","1958","1980","1958","1980"
"AMQUI","QUEBEC","48.47","-67.43","166.00","7050145","71386","WZS","1995","2019","1995","2019","1996","2019","",""
"AMQUI","QUEBEC","48.52","-67.45","182.90","7050140","","","1957","1997","","","1957","1997","1957","1997"
"AMULET","SASKATCHEWAN","49.62","-104.73","727.60","4010150","","","1970","2002","","","1970","2002","1970","2002"
"AMYOT LAKE","SASKATCHEWAN","53.70","-106.68","","4050153","","","1972","1972","","","1972","1972","1972","1972"
"ANAHIM LAKE","BRITISH COLUMBIA","52.47","-125.32","1108.00","1080431","","","1975","1994","","","1975","1994","1975","1994"
"ANAHIM LAKE","BRITISH COLUMBIA","52.35","-125.33","1097.30","1080430","","","1954","1967","","","1954","1967","1954","1967"
"ANAHIM LAKE 5 MILE RANCH","BRITISH COLUMBIA","52.53","-125.07","1246.00","1080432","","","1980","1988","","","1980","1988","1980","1988"
"ANDREW","ALBERTA","54.02","-112.23","610.00","3010234","","","1973","2017","","","1973","2017","1973","2007"
"ANDREW AGDM","ALBERTA","53.92","-112.28","625.00","3010237","71286","XAG","1998","2022","1998","2022","2002","2022","2002","2007"
"ANEROID","SASKATCHEWAN","49.72","-107.30","754.10","4020160","","","1916","2005","","","1916","2005","1916","2005"
"ANGERS","QUEBEC","45.55","-75.55","91.00","7030170","","","1962","2022","","","1962","2022","1962","2018"
"ANGLIA","SASKATCHEWAN","51.57","-108.17","567.20","4040180","","","1913","1945","","","1913","1945","1913","1945"
"ANGUS","ONTARIO","44.32","-79.87","191.10","6110270","","","1930","1965","","","1930","1965","1930","1965"
"ANGUS CAMPHILL","ONTARIO","44.28","-79.85","212.00","6110275","","","1994","1997","","","1994","1997","1994","1997"
"ANGUS TOWER","NORTHWEST TERRITORIES","60.35","-114.28","246.90","2200310","","","1968","1990","","","1968","1990","1968","1990"
"ANNACIS ISLAND","BRITISH COLUMBIA","49.18","-122.93","4.60","1100440","","","1954","1962","","","1954","1962","1954","1962"
"ANNAPOLIS ROYAL","NOVA SCOTIA","44.75","-65.52","7.70","8200100","","","1914","2007","","","1914","2007","1914","2006"
"ANNIE LAKE ROBINSON","YUKON TERRITORY","60.47","-134.83","820.00","2100115","","","1976","2006","","","1976","2006","1976","2006"
"ANOLA","MANITOBA","49.88","-96.65","255.10","5020069","","","1986","1987","","","1986","1987","1986","1987"
"ANSE AU GRIFFON","QUEBEC","48.93","-64.28","61.00","7050195","","","1973","1985","","","1973","1985","1973","1985"
"ANSELL LO","ALBERTA","53.55","-116.50","968.00","3060235","","","1960","2011","","","1960","2011","1960","2007"
"ANSELMO","ALBERTA","53.97","-115.42","853.40","3060237","","","1990","2003","","","1990","2003","1990","2003"
"ANTHRACITE","ALBERTA","51.20","-115.50","1386.80","3050240","","","1929","1962","","","1929","1962","1931","1962"
"ANTICOSTI HEATH POINT","QUEBEC","49.10","-61.70","9.10","7050198","","","1882","1935","","","1882","1935","1882","1935"
"ANTICOSTI SW POINT","QUEBEC","49.40","-63.55","7.30","7050200","","","1872","1954","","","1872","1954","1872","1954"
"ANTICOSTI WEST POINT","QUEBEC","49.87","-64.53","9.10","7050210","","","1882","1933","","","1882","1933","1882","1933"
"ANTIGONISH","NOVA SCOTIA","45.62","-61.98","30.50","8200151","","","1979","1982","","","1979","1982","1979","1982"
"ANTIGONISH","NOVA SCOTIA","45.63","-61.97","9.10","8200150","","","1880","1947","","","1880","1947","1880","1947"
"ANTIGONISH SNOW","NOVA SCOTIA","45.62","-61.90","30.00","8200152","","","2009","2009","","","2009","2009","",""
"ANTLER HILL","ALBERTA","52.05","-113.85","944.90","3020250","","","1973","1973","","","1973","1973","1973","1973"
"ANVIL","YUKON TERRITORY","62.37","-133.38","1158.20","2100120","","","1967","1991","","","1967","1991","1967","1991"
"ANVIL ISLAND","BRITISH COLUMBIA","49.52","-123.30","30.50","1040445","","","1956","1963","","","1956","1963","1956","1963"
"ANYOX","BRITISH COLUMBIA","55.42","-129.82","112.80","1060446","","","1916","1935","","","1916","1935","1916","1935"
"ANZAC","ALBERTA","56.45","-111.03","495.30","3060281","","","1972","1979","","","1972","1979","1972","1979"
"ANZAC","ALBERTA","56.45","-111.05","487.70","3060280","","","1950","1957","","","1950","1957","1950","1957"
"APEX MTN LODGE","BRITISH COLUMBIA","49.40","-119.92","1889.80","1120447","","","1965","1971","","","1965","1971","1965","1971"
"APPLE HILL","ONTARIO","45.22","-74.75","91.40","6100284","","","1950","1961","","","1950","1961","1950","1961"
"APPLETON","ONTARIO","45.19","-76.11","133.00","6100285","","","1992","2022","","","1992","2022","1992","2006"
"APPS MILL","ONTARIO","43.13","-80.38","230.10","6140286","","","1972","1972","","","1972","1972","1972","1972"
"APRIL BROOK IHD","NOVA SCOTIA","46.23","-61.13","61.00","8200155","","","1966","1976","","","1966","1976","1966","1976"
"APSLEY","ONTARIO","44.77","-78.08","274.30","6160297","","","1922","1957","","","1922","1957","1922","1957"
"ARAWANA","BRITISH COLUMBIA","49.58","-119.57","518.20","1120M47","","","1970","1976","","","1970","1976","1970","1976"
"ARBORG","MANITOBA","50.93","-97.08","224.00","5030080","","","1951","2016","","","1951","2016","1951","2007"
"ARCHERWILL","SASKATCHEWAN","52.43","-104.02","556.00","4080200","","","1951","1982","","","1951","1982","1951","1982"
"ARCOLA CDA EPF","SASKATCHEWAN","49.63","-102.53","603.50","4010240","","","1952","1993","","","1952","1993","1952","1993"
"ARCTIC BAY","NUNAVUT","73.01","-85.05","21.90","2400399","","YAB","2011","2022","2011","2022","2018","2022","",""
"ARCTIC BAY","NUNAVUT","73.03","-85.15","11.30","2400400","","","1937","1976","1953","1976","1937","1976","1937","1976"
"ARCTIC BAY A","NUNAVUT","73.01","-85.05","21.90","2400401","","YAB","2012","2022","2012","2022","","","",""
"ARCTIC BAY CS","NUNAVUT","72.99","-85.01","10.00","2400404","71592","XAT","1999","2022","2000","2022","1999","2022","1999","2007"
"ARCTIC RED RIVER","NORTHWEST TERRITORIES","67.45","-133.73","30.50","2200412","","","1974","1975","","","1974","1975","1974","1975"
"ARDEN","ONTARIO","44.70","-76.95","","6100310","","","1895","1911","","","1895","1911","1895","1911"
"ARDENVILLE","ALBERTA","49.53","-113.43","1126.00","3030200","","PAV","2014","2022","2014","2022","2018","2022","",""
"ARGENTA","BRITISH COLUMBIA","50.17","-116.93","548.60","1140448","","","1957","1974","","","1957","1974","1957","1974"
"ARGENTIA (AUT)","NEWFOUNDLAND","47.29","-53.99","19.00","8400104","71807","WAR","1987","2022","1987","2022","1992","2022","2004","2007"
"ARGENTIA A","NEWFOUNDLAND","47.30","-54.00","15.50","8400102","","","1976","1986","1976","1986","1976","1986","1976","1986"
"ARGENTIA A","NEWFOUNDLAND","47.30","-54.00","13.70","8400100","","","1945","1970","1953","1970","1945","1970","1945","1970"
"ARGYLE HEAD","NOVA SCOTIA","43.83","-65.87","15.20","8200170","","","1981","1983","","","1981","1983","1981","1983"
"ARGYLE SHORE","PRINCE EDWARD ISLAND","46.17","-63.35","15.20","8300108","","","1988","1991","","","1988","1991","1988","1991"
"ARKONA","ONTARIO","43.03","-81.92","182.90","6120315","","","1882","1915","","","1882","1915","1882","1915"
"ARMADA EXP ST","ALBERTA","50.40","-112.68","911.40","3030300","","","1955","1963","","","1955","1963","1955","1963"
"ARMAGH","QUEBEC","46.75","-70.53","358.00","7050240","","","1916","1994","","","1916","1994","1916","1994"
"ARMAGH STATION","QUEBEC","46.72","-70.62","312.40","7050245","","","1966","1986","","","1966","1986","1966","1986"
"ARMENA","ALBERTA","53.13","-112.95","746.80","3010301","","","1969","1972","","","1969","1972","1969","1972"
"ARMIT","SASKATCHEWAN","52.83","-101.78","308.00","4080250","","","1958","1994","","","1958","1994","1958","1994"
"ARMSTRONG","ONTARIO","50.28","-89.15","341.70","6040322","","","1926","1947","","","1926","1947","1926","1947"
"ARMSTRONG","BRITISH COLUMBIA","50.45","-119.18","359.00","1160450","","","1912","1992","","","1912","1992","1912","1992"
"ARMSTRONG (AUT)","ONTARIO","50.29","-88.91","322.50","6040325","71841","WYW","1938","2022","1953","2022","1938","2022","1938","1982"
"ARMSTRONG (AUT)","ONTARIO","50.30","-89.03","350.50","6040326","","","1994","1995","1994","1995","1994","1995","",""
"ARMSTRONG A","ONTARIO","50.29","-88.91","322.50","6040327","","YYW","2015","2022","2015","2022","2018","2022","",""
"ARMSTRONG GRANDVIEW","BRITISH COLUMBIA","50.40","-119.28","502.90","1120475","","","1959","1960","","","1959","1960","1959","1960"
"ARMSTRONG HULLCAR","BRITISH COLUMBIA","50.50","-119.22","505.00","1160483","","","1971","1998","","","1971","1998","1971","1998"
"ARMSTRONG JELLIEN","ONTARIO","50.25","-89.10","341.40","6040330","","","1987","1992","","","1987","1992","1987","1992"
"ARMSTRONG NORTH","BRITISH COLUMBIA","50.47","-119.13","373.00","1160485","","","1972","1993","","","1972","1993","1972","1993"
"ARMSTRONG OTTER LAKE","BRITISH COLUMBIA","50.40","-119.25","342.40","1120486","","","1991","1992","","","1991","1992","1991","1992"
"ARNESON","ALBERTA","51.23","-110.05","754.40","3020L01","","","1983","1986","","","1983","1986","1983","1986"
"ARNOLDS COVE","NEWFOUNDLAND","47.75","-54.00","15.20","8400135","","","1971","1994","","","1971","1994","1971","1994"
"ARNPRIOR","ONTARIO","45.43","-76.38","99.10","6100340","","","1959","1964","","","1959","1964","1959","1963"
"ARNPRIOR GRANDON","ONTARIO","45.42","-76.37","106.70","6100345","","","1959","1999","","","1959","1999","1959","1999"
"AROOSTOOK","NEW BRUNSWICK","46.71","-67.72","80.00","8100300","","","1929","2022","","","1929","2022","1929","2005"
"ARRAN","SASKATCHEWAN","51.97","-101.73","449.60","4080260","","","1957","1971","","","1957","1971","1957","1971"
"ARRAN 23N","SASKATCHEWAN","52.20","-101.63","449.90","4080262","","","1970","1992","","","1970","1992","1970","1992"
"ARRAS","BRITISH COLUMBIA","55.73","-120.53","676.70","1180490","","","1970","1988","","","1970","1988","1970","1988"
"ARROW RIVER","MANITOBA","50.17","-100.85","486.20","5010114","","","1982","1983","","","1982","1983","1982","1983"
"ARROWWOOD","ALBERTA","50.73","-113.15","936.30","3030302","","","1965","1975","","","1965","1975","1965","1975"
"ARTHABASKA","QUEBEC","46.02","-71.95","140.00","7020305","","","1969","2022","","","1969","2022","1969","2018"
"ARTHUR","ONTARIO","43.82","-80.57","452.00","6140348","","","1964","1988","","","1964","1988","1964","1987"
"ARTHURETTE BIRCH RIDGE","NEW BRUNSWICK","46.75","-67.47","214.90","8100350","","","1967","1983","","","1967","1983","1967","1983"
"ARTLAND","SASKATCHEWAN","52.78","-109.90","640.10","4040267","","","1983","2005","","","1983","2005","1983","2005"
"ARUNDEL","QUEBEC","45.95","-74.62","191.40","7030310","","","1963","2022","","","1963","2022","1963","2017"
"ARVIAT A","NUNAVUT","61.10","-94.07","10.40","2300MKF","","YEK","1973","2016","1984","2012","1973","2016","1973","2007"
"ARVIAT A","NUNAVUT","61.09","-94.07","10.40","2300428","","YEK","2012","2022","2012","2022","","","",""
"ARVIAT A","NUNAVUT","61.09","-94.07","10.40","2300427","71174","YEK","2006","2022","2006","2022","2012","2022","",""
"ARVIAT AWOS","NUNAVUT","61.10","-94.07","10.40","2300426","","YEK","2008","2012","2008","2012","2008","2012","",""
"ARVIAT CLIMATE","NUNAVUT","61.10","-94.07","9.80","2301153","71322","XAR","2004","2022","2004","2022","2004","2022","2005","2007"
"ARVIDA","QUEBEC","48.43","-71.17","102.10","7060320","","","1931","1989","","","1931","1989","1931","1988"
"ASBESTOS","QUEBEC","45.77","-71.95","228.60","7020360","","","1948","1987","","","1948","1987","1948","1987"
"ASBESTOS HILL","QUEBEC","61.80","-73.95","483.70","7110370","","","1960","1963","","","1960","1963","1960","1963"
"ASH RIVER","BRITISH COLUMBIA","49.47","-125.08","304.80","1030550","","","1957","1959","","","1957","1959","1958","1959"
"ASH RIVER GENERATING STN","BRITISH COLUMBIA","49.37","-125.15","91.40","1030552","","","1959","1969","","","1959","1969","1959","1969"
"ASHCROFT","BRITISH COLUMBIA","50.72","-121.28","304.80","1160510","","","1912","1970","","","1912","1970","1912","1969"
"ASHCROFT","BRITISH COLUMBIA","50.71","-121.28","327.00","1160515","71681","VAS","2010","2022","2010","2022","2010","2022","",""
"ASHCROFT","BRITISH COLUMBIA","50.73","-121.27","331.00","1160511","","","1973","1989","","","1973","1989","1973","1989"
"ASHCROFT M","BRITISH COLUMBIA","50.72","-121.33","487.70","1160540","","","1944","1972","","","1944","1972","1944","1972"
"ASHCROFT NORTH","BRITISH COLUMBIA","50.73","-121.27","320.00","1160520","","","1980","1986","","","1980","1986","1980","1986"
"ASHCROFT VENABLES VLY","BRITISH COLUMBIA","50.55","-121.33","640.00","1160546","","","1984","1987","","","1984","1987","1984","1987"
"ASHDALE","NOVA SCOTIA","45.00","-63.88","70.10","8200180","","","2000","2004","","","2000","2004","2000","2004"
"ASHERN","MANITOBA","51.13","-98.37","263.00","5040120","","","1951","1991","","","1951","1991","1951","1991"
"ASHERN NORTHWEST","MANITOBA","51.20","-98.38","266.70","5040JK0","","","1989","2001","","","1989","2001","1989","2001"
"ASHTON","ONTARIO","45.20","-75.97","136.90","6100353","","","1956","1956","","","1956","1956","1956","1956"
"ASHTON HILL","NEW BRUNSWICK","47.10","-65.73","278.90","8100400","","","1935","1947","","","1935","1947","1935","1947"
"ASHTON STN SESIA FARM","ONTARIO","45.17","-76.07","137.20","6100363","","","1959","1973","","","1959","1973","1959","1973"
"ASHUANIPI","NEWFOUNDLAND","52.53","-66.23","545.60","8500200","","","1948","1950","","","1948","1950","1948","1950"
"ASHVILLE","MANITOBA","51.28","-100.28","320.00","5040121","","","1973","1979","","","1973","1979","1973","1979"
"ASQUITH","SASKATCHEWAN","52.13","-107.23","519.40","4050275","","","1961","1981","","","1961","1981","1961","1981"
"ASSINIBOIA","SASKATCHEWAN","49.73","-105.97","723.90","4020280","","","1915","1997","","","1915","1997","1915","1997"
"ASSINIBOIA AIRPORT","SASKATCHEWAN","49.73","-105.95","725.50","4020286","71487","WJI","1992","2022","1994","2022","1992","2022","1996","2007"
"ASSUMPTION","ALBERTA","58.70","-118.68","304.80","3070310","","","1961","1970","","","1961","1970","1961","1970"
"ASSUMPTION","ALBERTA","58.70","-118.72","335.30","3070311","","","1973","1975","","","1973","1975","1973","1975"
"ATHABASCA","ALBERTA","54.72","-113.28","515.00","3060320","","","1918","1967","","","1918","1967","1918","1967"
"ATHABASCA 1","ALBERTA","54.72","-113.29","514.70","3060L20","","","1986","2020","","","1986","2020","1986","2007"
"ATHABASCA 2","ALBERTA","54.82","-113.54","626.30","3060321","","","1952","2010","","","1952","2010","1952","2007"
"ATHABASCA 3","ALBERTA","54.72","-113.28","526.70","3060322","","","1973","1974","","","1973","1974","1973","1974"
"ATHABASCA AGCM","ALBERTA","54.63","-113.38","635.00","3060330","71271","PAF","2008","2022","2008","2022","2008","2022","",""
"ATHABASCA EXP ST","ALBERTA","54.70","-113.38","579.10","3060337","","","1952","1957","","","1952","1957","1952","1957"
"ATHABASCA LANDING","ALBERTA","54.72","-113.28","502.90","3060352","","","1900","1927","","","1900","1927","1900","1927"
"ATHABASCA LO","ALBERTA","53.42","-117.78","1630.70","3060353","","","1954","2011","","","1954","2011","1954","2007"
"ATHENS","ONTARIO","44.65","-75.92","121.90","6100375","","","1969","1978","","","1969","1978","1969","1978"
"ATIKAMEG","ALBERTA","55.90","-115.65","650.70","3070400","","","1959","1959","","","1959","1959","1959","1959"
"ATIKOKAN","ONTARIO","48.75","-91.62","395.30","6020379","","","1966","1988","1966","1988","1966","1988","1966","1988"
"ATIKOKAN (AUT)","ONTARIO","48.76","-91.63","389.30","6020LPQ","71747","WCH","1994","2022","1994","2022","2000","2022","2005","2006"
"ATIKOKAN CLI","ONTARIO","48.73","-91.63","391.40","6020381","","","1914","1971","","","1914","1971","1914","1971"
"ATIKOKAN MARMION","ONTARIO","48.80","-91.58","442.00","6020384","","","1979","2007","","","1979","2007","1979","2006"
"ATKINSON POINT","NORTHWEST TERRITORIES","69.93","-131.40","3.00","2200430","","","1959","1963","","","1959","1963","1959","1963"
"ATLEE","ALBERTA","50.82","-110.95","792.50","3020401","","","1982","1995","","","1982","1995","1982","1995"
"ATLEE AGCM","ALBERTA","50.81","-111.01","795.00","3020405","71986","PAT","2009","2022","2009","2022","2009","2022","",""
"ATLIN","BRITISH COLUMBIA","59.57","-133.70","673.60","1200560","","","1899","2021","","","1899","2021","1899","2007"
"ATMORE","ALBERTA","54.82","-112.55","609.60","3060403","","","1973","1973","","","1973","1973","1973","1973"
"ATMORE AGDM","ALBERTA","54.78","-112.83","574.00","3060406","71287","XAJ","1992","2022","1992","2022","2002","2022","2003","2007"
"ATNARKO PARKS CAMP","BRITISH COLUMBIA","52.42","-125.92","289.90","1080562","","","1979","1981","","","1979","1981","1979","1981"
"ATTAWAPISKAT","ONTARIO","52.92","-82.45","9.10","6010387","","","1968","1968","","","1968","1968","1968","1968"
"ATTAWAPISKAT A","ONTARIO","52.93","-82.43","9.10","6010400","71653","YAT","2015","2022","2015","2022","2015","2022","",""
"ATWATER","SASKATCHEWAN","50.82","-102.22","536.10","4010310","","","1977","2008","","","1977","2008","1977","2007"
"AUDET","QUEBEC","45.65","-70.73","513.60","7020391","","","1965","1985","","","1965","1985","1965","1985"
"AUPALUK A","QUEBEC","59.30","-69.60","36.90","7110601","","YLA","2018","2022","2018","2022","2018","2022","",""
"AURORA","ONTARIO","43.95","-79.40","270.10","6150395","","","1883","1919","","","1883","1919","1883","1919"
"AURORA LO","ALBERTA","52.65","-115.72","1341.10","3010410","","","1968","2011","","","1968","2011","1968","2007"
"AURORA MOE","ONTARIO","44.02","-79.47","259.10","6150396","","","1980","1984","","","1980","1984","1980","1984"
"AURORA NE","ONTARIO","44.02","-79.45","260.00","6150398","","","2003","2009","","","2003","2009","2003","2006"
"AURORA PAYMENT","ONTARIO","43.98","-79.47","281.90","6150397","","","1971","1975","","","1971","1975","1971","1975"
"AUSTIN","MANITOBA","49.90","-98.98","327.70","5040128","","","1989","1995","","","1989","1995","1989","1995"
"AUTEUIL","QUEBEC","45.65","-73.73","53.00","7020392","","","1983","2016","","","1983","2016","1983","2016"
"AVOLA","BRITISH COLUMBIA","51.78","-119.33","609.60","1160565","","","1974","1982","","","1974","1982","1974","1982"
"AVON","NOVA SCOTIA","44.88","-64.22","23.70","8200200","","","1949","2001","","","1949","2001","1949","2001"
"AVONDALE","NOVA SCOTIA","45.02","-64.12","42.10","8200210","","","1993","2006","","","1993","2006","1993","2006"
"AVONDALE CDA","NEWFOUNDLAND","47.42","-53.23","132.60","8400225","","","1955","1996","","","1955","1996","1955","1996"
"AVONLEA EXP ST","SASKATCHEWAN","50.02","-105.05","601.10","4010320","","","1951","1955","","","1951","1955","1951","1955"
"AVONMORE","ONTARIO","45.17","-74.97","91.40","6100398","","","1976","2006","","","1976","2006","1976","2006"
"AYLESBURY","SASKATCHEWAN","50.93","-105.70","579.10","4010358","","","1973","1980","","","1973","1980","1973","1980"
"AYLESBURY CDA EPF","SASKATCHEWAN","51.00","-105.67","576.10","4010360","","","1951","1962","","","1951","1962","1951","1962"
"AYLESFORD","NOVA SCOTIA","45.03","-64.87","39.90","8200220","","","1961","1984","","","1961","1984","1961","1984"
"AYLMER","ONTARIO","42.77","-80.98","228.60","6130409","","","1948","1981","","","1948","1981","1948","1981"
"AYLMER","ONTARIO","42.77","-80.98","232.00","6130411","","","1996","2004","","","1996","2004","1996","2004"
"AYLMER 2","ONTARIO","42.77","-81.00","231.60","6130415","","","1958","1961","","","1958","1961","1958","1961"
"AYLMER ONT HYDRO","ONTARIO","42.78","-80.98","235.90","6130420","","","1983","2000","","","1983","2000","1983","2000"
"AYLSHAM","SASKATCHEWAN","53.20","-103.80","362.10","4070365","","","1968","2005","","","1968","2005","1968","2005"
"AYR","ONTARIO","43.28","-80.45","289.60","6140437","","","1956","1961","","","1956","1961","1956","1961"
"AYTON","ONTARIO","44.08","-80.83","361.00","6110439","","","1988","1993","","","1988","1993","1988","1993"
"AZURE","ALBERTA","50.51","-114.01","1143.00","3030450","71981","PAZ","2008","2022","2008","2022","2008","2022","",""
"BABINE LAKE FISHERIES","BRITISH COLUMBIA","55.07","-126.53","713.20","1070571","","","1912","1936","","","1912","1936","1912","1936"
"BABINE LAKE HALIFAX BAY","BRITISH COLUMBIA","55.05","-126.48","711.70","1070572","","","1972","1973","","","1972","1973","1972","1973"
"BABINE LAKE PINKUT CREEK","BRITISH COLUMBIA","54.45","-125.46","713.20","1070573","","","1968","2012","","","1968","2012","1969","2007"
"BACCARO","NOVA SCOTIA","43.47","-65.47","3.00","8200250","","","1957","1979","","","1957","1979","1957","1979"
"BACCARO POINT","NOVA SCOTIA","43.45","-65.47","12.70","8200254","","WCP","1994","2009","1994","2009","2005","2007","",""
"BACCARO PT","NOVA SCOTIA","43.45","-65.47","4.60","8200255","71920","ACP","2007","2022","2007","2022","2007","2022","2007","2007"
"BACHELORS ISLAND MARINE","MANITOBA","51.75","-99.90","255.90","5040131","71143","WBL","1994","2012","1994","2012","1994","2012","1996","2004"
"BACK RIVER (AUT)","NUNAVUT","66.09","-96.51","61.00","2300MQM","","WXV","1994","2004","1994","2004","1995","2004","1999","2003"
"BAD LAKE IHD 102","SASKATCHEWAN","51.32","-108.42","637.00","404037Q","","","1971","1986","","","1971","1986","1971","1986"
"BADDECK","NOVA SCOTIA","46.10","-60.75","7.60","8200300","","","1875","2000","","","1875","2000","1875","2000"
"BADDECK BELL","NOVA SCOTIA","46.10","-60.75","16.60","8200301","","","2000","2010","","","2000","2010","2000","2006"
"BADGER","NEWFOUNDLAND","48.98","-56.05","100.60","8400300","","","1955","1967","","","1955","1967","1955","1967"
"BADGER (AUT)","NEWFOUNDLAND","48.97","-56.07","102.70","8400301","71400","WDI","1973","2022","1986","2022","1973","2022","1973","2007"
"BADGER C","NEWFOUNDLAND","48.97","-56.05","102.00","8400309","","","1988","1989","","","1988","1989","1988","1989"
"BAGOTVILLE A","QUEBEC","48.33","-71.00","159.10","7060400","71727","YBG","1942","2022","1953","2022","1942","2022","1942","2017"
"BAIE COMEAU","QUEBEC","49.23","-68.18","68.60","7040MLR","","","1966","1980","","","1966","1980","1966","1980"
"BAIE COMEAU CBA","QUEBEC","49.22","-68.15","7.60","7040445","","","1958","1966","","","1958","1966","1958","1966"
"BAIE DES SABLES","QUEBEC","48.70","-67.83","99.00","7050MM5","","","1981","2004","","","1981","2004","1981","2004"
"BAIE JOHAN BEETZ","QUEBEC","50.28","-62.80","7.60","7040MMN","","","1965","2004","","","1965","2004","1965","2004"
"BAIE ST PAUL","QUEBEC","47.42","-70.50","32.00","7040446","","","1963","2004","","","1963","2004","1963","2004"
"BAIE VERTE","NEWFOUNDLAND","49.98","-56.18","110.30","8400350","","","1958","1995","","","1958","1995","1958","1995"
"BAIE VERTE JUNCTION","NEWFOUNDLAND","49.45","-56.43","78.00","8400359","","","1989","1994","","","1989","1994","1989","1994"
"BAIE WAKEHAM","QUEBEC","61.60","-71.97","6.10","7110DMF","","","1966","1967","","","1966","1967","1966","1967"
"BAIE-COMEAU","QUEBEC","49.13","-68.20","21.60","7040444","71691","YBC","2010","2022","2010","2022","2010","2022","",""
"BAIE-COMEAU","QUEBEC","49.26","-68.15","129.50","704S001","71829","WFW","1995","2022","1995","2022","1996","2022","",""
"BAIE-COMEAU A","QUEBEC","49.13","-68.20","21.60","7040440","","","1947","2005","1956","2005","1947","2005","1947","2004"
"BAIE-COMEAU A","QUEBEC","49.13","-68.20","21.60","7040442","71890","GBC","2004","2022","2004","2022","2005","2022","2005","2005"
"BAIRD LAKE","ALBERTA","54.35","-114.43","670.60","3060472","","","1981","1997","","","1981","1997","1981","1997"
"BAKER LAKE A","NUNAVUT","64.30","-96.08","18.60","2300503","71926","YBK","2013","2022","2013","2022","2013","2022","",""
"BAKER LAKE A","NUNAVUT","64.30","-96.08","18.60","2300504","","YBK","2016","2022","2016","2022","2018","2022","",""
"BAKER LAKE A","NUNAVUT","64.30","-96.08","18.60","2300500","71926","YBK","1946","2013","1953","2013","1946","2013","1946","2013"
"BAKER LAKE CLIMATE","NUNAVUT","64.32","-96.00","50.80","2300501","71356","XBL","2004","2022","2004","2022","2004","2022","2005","2007"
"BAKER MINE","BRITISH COLUMBIA","57.20","-126.95","1645.90","1180580","","","1980","1983","","","1980","1983","1980","1983"
"BALA","ONTARIO","45.00","-79.50","225.60","6110458","","","1883","1907","","","1883","1907","1883","1907"
"BALACLAVA","ONTARIO","44.67","-80.78","222.00","6110470","","","2006","2016","","","2006","2016","2006","2006"
"BALCARRES","SASKATCHEWAN","50.78","-103.62","576.10","4010395","","","1961","2010","","","1961","2010","1961","2007"
"BALD MOUNTAIN LO","ALBERTA","54.82","-118.92","938.80","3070480","","","1954","2011","","","1954","2011","1954","2007"
"BALDONNEL","BRITISH COLUMBIA","56.23","-120.68","685.80","1180585","","","1927","1993","","","1927","1993","1927","1993"
"BALDUR","MANITOBA","49.28","-99.29","449.90","5010140","","","1962","2022","","","1962","2022","1962","2007"
"BALDUR 5 NORTHEAST","MANITOBA","49.42","-99.17","425.30","5010143","","","1991","1995","","","1991","1995","1991","1995"
"BALDWIN","ONTARIO","44.27","-79.32","229.00","6110480","","","2004","2022","","","2004","2022","2004","2006"
"BALDY HUGHES","BRITISH COLUMBIA","53.62","-122.95","1128.10","1090586","","","1980","1984","","","1980","1984","1980","1984"
"BALDY LO","ALBERTA","52.55","-116.12","2083.30","3050490","","","1960","2011","","","1960","2011","1960","2007"
"BALLANTRAE","ONTARIO","44.05","-79.30","327.70","6150460","","","1979","1992","","","1979","1992","1979","1992"
"BALLATER","ALBERTA","55.58","-117.21","563.80","3070493","","","1990","2014","","","1990","2014","1990","2007"
"BALLATER AGCM","ALBERTA","55.58","-117.24","560.00","3070495","","PBC","2010","2022","2010","2022","2018","2022","",""
"BALLENAS ISLAND","BRITISH COLUMBIA","49.35","-124.16","14.50","1020590","71769","WGB","1966","2022","1994","2022","1966","2022","1967","2007"
"BALM","ALBERTA","53.92","-115.25","777.20","3060495","","","1969","1974","","","1969","1974","1969","1974"
"BALTIMORE","NEW BRUNSWICK","45.88","-64.82","182.90","8100430","","","1982","1997","","","1982","1997","1982","1997"
"BAMBERTON OCEAN CEMENT","BRITISH COLUMBIA","48.58","-123.52","85.30","1010595","","","1961","1980","","","1961","1980","1961","1980"
"BAMFIELD","BRITISH COLUMBIA","48.83","-125.10","21.30","1030600","","","1903","1956","","","1903","1956","1903","1956"
"BAMFIELD EAST","BRITISH COLUMBIA","48.83","-125.12","4.00","1030605","","","1959","2001","","","1959","2001","1959","2001"
"BAMFIELD WEST","BRITISH COLUMBIA","48.83","-125.15","3.00","1030610","","","1955","1959","","","1955","1959","1955","1959"
"BANANA BELT","ALBERTA","55.20","-116.42","670.60","3060514","","","1971","1972","","","1971","1972","1971","1972"
"BANCROFT","ONTARIO","45.05","-77.85","326.70","6160465","","","1882","1985","","","1882","1985","1882","1985"
"BANCROFT AUTO","ONTARIO","45.07","-77.88","330.70","616I001","71294","WRK","1995","2022","1995","2022","1995","2022","1997","2006"
"BANCROFT L'AMABLE","ONTARIO","45.00","-77.80","347.00","6160468","","","1985","1986","","","1985","1986","1985","1986"
"BANCROFT OMNR","ONTARIO","45.05","-77.87","344.40","6160473","","","1987","1990","","","1987","1990","1987","1990"
"BANFF","ALBERTA","51.18","-115.57","1383.70","3050520","","","1887","1995","1953","1995","1887","1995","1887","1995"
"BANFF (AUT)","ALBERTA","51.18","-115.57","1396.90","3050521","","","1992","1997","1994","1997","1992","1997","",""
"BANFF CR10","ALBERTA","51.20","-115.55","1397.00","3050522","","","1996","1997","","","1996","1997","1996","1997"
"BANFF CS","ALBERTA","51.19","-115.55","1396.90","3050519","71122","WZG","1995","2022","1997","2022","1995","2022","1995","2007"
"BANFF SPRINGS","ALBERTA","51.17","-115.55","1370.00","3050526","","","2001","2007","","","2001","2007","2001","2007"
"BANGOR","PRINCE EDWARD ISLAND","46.35","-62.68","36.60","8300128","","","1971","2004","","","1971","2004","1971","2004"
"BANGOR","SASKATCHEWAN","50.90","-102.28","526.40","4010400","","","1951","2005","","","1951","2005","1951","2005"
"BANKEIR","BRITISH COLUMBIA","49.72","-120.23","1097.30","1120630","","","1954","1959","","","1954","1959","1954","1959"
"BANKIER CHAIN LAKE","BRITISH COLUMBIA","49.70","-120.28","1020.00","1120633","","","1974","1991","","","1974","1991","1974","1991"
"BAPTISTE LAKE","ALBERTA","54.73","-113.53","575.00","3060523","","","1971","2000","","","1971","2000","1971","2000"
"BAR RIVER","ONTARIO","46.43","-84.05","180.00","6050NNP","","","1988","1992","","","1988","1992","1988","1992"
"BARCLAY","ONTARIO","49.83","-92.82","381.30","6030488","","","1885","1896","","","1885","1896","1885","1896"
"BARK LAKE","QUEBEC","46.50","-75.33","364.20","7030447","","","1912","1929","","","1912","1929","1912","1929"
"BARK LAKE DAM","ONTARIO","45.42","-77.80","335.30","6100493","","","1950","1971","","","1950","1971","1950","1971"
"BARKERVILLE","BRITISH COLUMBIA","53.07","-121.51","1283.00","1090660","","","1888","2022","","","1888","2022","1888","2007"
"BARNSTON","QUEBEC","45.08","-71.88","445.00","7020DDP","","","1965","1982","","","1965","1982","1965","1982"
"BARNWELL AGDM","ALBERTA","49.80","-112.30","824.20","3030525","71346","XBW","2001","2022","2001","2022","2002","2022","2002","2007"
"BARONS AGCM","ALBERTA","50.03","-113.22","967.00","3030529","71007","PBA","2006","2022","2006","2022","2007","2022","2007","2007"
"BARONS EXP ST","ALBERTA","50.03","-113.17","961.00","3030530","","","1955","1963","","","1955","1963","1955","1963"
"BARONS EXP ST 2","ALBERTA","50.00","-112.92","960.10","3030531","","","1956","1960","","","1956","1960","1956","1959"
"BARRAGE A LAC KEMPT","QUEBEC","47.55","-74.18","420.60","7070448","","","1913","1970","","","1913","1970","1913","1970"
"BARRAGE ANGLIERS","QUEBEC","47.55","-79.24","266.90","7080452","","WRC","1911","2007","1996","2007","1911","2007","1911","1996"
"BARRAGE CABONGA","QUEBEC","47.32","-76.47","365.80","7080449","","","1929","1969","","","1929","1969","1929","1969"
"BARRAGE CICONCINE","QUEBEC","47.38","-73.03","205.70","7070450","","","1942","1967","","","1942","1967","1942","1967"
"BARRAGE GOUIN","QUEBEC","48.35","-74.10","403.90","7070454","","","1913","1982","","","1913","1982","1913","1981"
"BARRAGE GOUIN S","QUEBEC","48.35","-74.10","403.90","7070ME4","","","1973","1974","","","1973","1974","1973","1974"
"BARRAGE LAC MORIN","QUEBEC","47.65","-69.52","198.10","7050455","","","1942","1984","","","1942","1984","1942","1984"
"BARRAGE MATTAWIN","QUEBEC","46.85","-73.65","365.80","7070456","","","1929","1982","","","1929","1982","1929","1982"
"BARRAGE MERCIER","QUEBEC","46.72","-75.98","236.20","7030457","","","1927","1980","","","1927","1980","1927","1980"
"BARRAGE MISTIGOUGECHE","QUEBEC","48.18","-68.02","320.00","7050460","","","1961","1966","","","1961","1966","1961","1966"
"BARRAGE MITCHINAMECUS","QUEBEC","47.22","-75.17","390.10","7030462","","","1941","1967","","","1941","1967","1941","1967"
"BARRAGE MITIS","QUEBEC","48.33","-67.90","266.70","7050463","","","1926","1966","","","1926","1966","1926","1966"
"BARRAGE MONDONAC","QUEBEC","47.45","-73.93","457.20","7070464","","","1943","1966","","","1943","1966","1943","1966"
"BARRAGE TEMISCAMINGUE","QUEBEC","46.71","-79.10","181.40","7080468","71732","WBA","1910","2022","1997","2022","1910","2022","1910","1995"
"BARRAUTE","QUEBEC","48.37","-77.65","305.00","7090470","","","1958","1994","","","1958","1994","1959","1994"
"BARRETT CHUTE","ONTARIO","45.25","-76.77","160.00","6100521","","","1950","1968","","","1950","1968","1950","1968"
"BARRHEAD","ALBERTA","54.12","-114.37","644.00","3060532","","","1974","1976","","","1974","1976","1974","1976"
"BARRHEAD CS","ALBERTA","54.09","-114.45","648.00","3060535","71061","XBD","2000","2022","2000","2022","2000","2022","2001","2007"
"BARRIE","ONTARIO","44.40","-79.68","228.60","6110549","","","1866","1958","","","1866","1958","1866","1958"
"BARRIE (AUT)","ONTARIO","44.38","-79.78","295.00","6110552","","WCU","1992","2003","1994","2003","1992","2003","",""
"BARRIE BROOK","NOVA SCOTIA","45.65","-61.43","10.70","8200400","","","1950","1972","","","1950","1972","1950","1972"
"BARRIE CKVR","ONTARIO","44.35","-79.70","312.40","6110555","","","1960","1961","","","1960","1961","1960","1961"
"BARRIE LANDFILL","ONTARIO","44.39","-79.74","305.00","6110556","","","2011","2022","","","2011","2022","",""
"BARRIE WPCC","ONTARIO","44.38","-79.69","221.00","6110557","","","1968","2009","","","1968","2009","1968","2006"
"BARRIE-ORO","ONTARIO","44.48","-79.55","289.00","6117700","71314","XBI","2003","2022","2003","2022","2003","2022","2003","2006"
"BARRIER LAKE","ALBERTA","51.05","-115.08","2020.50","3050533","","","1995","2011","","","1995","2011","1995","2007"
"BARRIERE","BRITISH COLUMBIA","51.18","-120.12","415.00","1160670","","","1955","1996","","","1955","1996","1955","1996"
"BARRIERE CLERMONT","QUEBEC","47.70","-70.22","83.80","70404PA","","","1973","1978","","","1973","1978","1973","1978"
"BARRIERE ETIENNICHE","QUEBEC","49.45","-71.38","320.00","7060M7A","","","1973","1975","","","1973","1975","1973","1975"
"BARRIERE JALBERT","QUEBEC","48.45","-70.70","175.30","7040MGJ","","","1972","1975","","","1972","1975","1972","1975"
"BARRIERE LOUVICOURT","QUEBEC","47.87","-77.33","317.30","7090473","","","1963","1974","","","1963","1974","1963","1974"
"BARRIERE MILOT","QUEBEC","48.90","-71.77","167.60","7060DPC","","","1973","1980","","","1973","1980","1973","1980"
"BARRIERE MISTIGOUGECHE","QUEBEC","48.20","-68.07","312.40","7050M73","","","1967","1967","","","1967","1967","1967","1967"
"BARRIERE MITIS","QUEBEC","48.37","-67.93","236.20","7050MGC","","","1966","1982","","","1966","1982","1966","1982"
"BARRIERE N CHIBOUGAMAU","QUEBEC","49.50","-74.17","396.20","7060474","","","1963","1974","","","1963","1974","1963","1973"
"BARRIERE NORTH","BRITISH COLUMBIA","51.23","-120.15","388.60","1160673","","","1970","1984","","","1970","1984","1970","1984"
"BARRIERE QUINN","QUEBEC","46.72","-76.07","256.30","7030475","","","1963","1973","","","1963","1973","1963","1973"
"BARRIERE ST GUILLAUME","QUEBEC","46.60","-74.17","411.50","7070DP6","","","1973","1973","","","1973","1973","1973","1973"
"BARRIERE STONEHAM","QUEBEC","47.17","-71.25","597.40","7010478","","","1963","1976","","","1963","1976","1963","1976"
"BARRIERE SUD LA DORE","QUEBEC","48.82","-72.73","198.10","706047H","","","1963","1975","","","1963","1975","1963","1975"
"BARRIERE TOURILLI","QUEBEC","47.17","-71.62","493.80","7010480","","","1949","1960","","","1949","1960","1949","1960"
"BARRY'S BAY","ONTARIO","45.43","-77.67","289.60","6100558","","","1976","1982","","","1976","1982","1976","1982"
"BARVILLE","QUEBEC","48.42","-77.47","318.50","7090520","","","1953","1957","","","1953","1957","1953","1957"
"BARWICK","ONTARIO","48.63","-93.97","335.00","6020559","","","1978","2022","","","1978","2022","1978","2006"
"BAS CARAQUET","NEW BRUNSWICK","47.80","-64.87","10.70","8100468","","","1982","2022","","","1982","2022","1982","2006"
"BAS CARAQUET","NEW BRUNSWICK","47.80","-64.83","5.00","8100467","71598","WXS","1993","2022","1994","2022","1993","2022","1993","2007"
"BASELINE LO","ALBERTA","52.13","-115.42","1897.10","3010534","","","1961","2011","","","1961","2011","1961","2007"
"BASHAW","ALBERTA","52.68","-112.87","792.50","3010535","","","1906","1922","","","1906","1922","1906","1922"
"BASHAW","ALBERTA","52.60","-112.98","800.10","302053E","","","1971","1975","","","1971","1975","1971","1975"
"BASNETT","ALBERTA","57.37","-119.82","760.00","3070NLN","","","1989","2011","","","1989","2011","1989","2007"
"BASSANO AGCM","ALBERTA","50.89","-112.47","807.00","3030540","71008","PBS","2007","2022","2007","2022","2007","2022","2007","2007"
"BASSANO DAM","ALBERTA","50.78","-112.47","800.10","3030537","","","1914","1935","","","1914","1935","1914","1935"
"BASSANO GEM","ALBERTA","50.90","-112.20","751.00","3030538","","","1916","1935","","","1916","1935","1916","1935"
"BASSET LO","ALBERTA","58.20","-118.22","755.30","30705LQ","","","1966","2011","","","1966","2011","1966","2007"
"BASSWOOD","MANITOBA","50.25","-100.03","582.80","5040146","","","1992","1996","","","1992","1996","1992","1996"
"BATHURST","NEW BRUNSWICK","47.62","-65.65","12.20","8100500","","","1872","1972","","","1872","1972","1872","1972"
"BATHURST","NEW BRUNSWICK","47.62","-65.65","4.60","8100502","","","1964","1992","","","1964","1992","1964","1992"
"BATHURST A","NEW BRUNSWICK","47.63","-65.75","58.80","8100503","71574","ZBF","1992","2013","1994","2013","1992","2013","1992","2013"
"BATHURST A","NEW BRUNSWICK","47.63","-65.74","58.80","8100505","","ZBF","2013","2018","2013","2018","2013","2018","",""
"BATHURST A","NEW BRUNSWICK","47.63","-65.74","58.80","8100506","71574","ZBF","2016","2022","2016","2022","2018","2022","",""
"BATHURST INLET","NUNAVUT","66.84","-108.01","5.00","2300551","71874","NBI","2012","2022","2012","2022","2012","2022","",""
"BATHURST INLET","NUNAVUT","66.83","-108.02","13.40","2300550","","","1958","1962","","","1958","1962","1958","1962"
"BATHURST ISLAND","NUNAVUT","75.72","-98.42","3.00","2400552","","","1971","1979","","","1971","1979","1971","1979"
"BATTLE CREEK LO","ALBERTA","49.65","-109.98","1310.60","3030E39","","","1974","1978","","","1974","1978","1974","1978"
"BATTLE HARBOUR","NEWFOUNDLAND","52.28","-55.58","15.20","8500395","","","1947","1983","","","1947","1983","1947","1983"
"BATTLE HARBOUR LOR","NEWFOUNDLAND","52.25","-55.60","9.40","8500398","","","1957","1983","1957","1983","1957","1983","1957","1983"
"BATTLE HARBOUR MARYS R","NEWFOUNDLAND","52.32","-55.83","6.10","8500400","","","1956","1983","","","1956","1983","1956","1983"
"BATTLE HEADWATERS","ALBERTA","52.93","-114.20","654.00","3010540","","","2003","2007","","","2003","2007","2003","2007"
"BATTLE RIVER LO","ALBERTA","57.48","-117.65","731.50","3070540","","","1955","2011","","","1955","2011","1955","2007"
"BATTLEFORD","SASKATCHEWAN","52.68","-108.33","493.80","4040420","","","1879","1942","","","1879","1942","1891","1941"
"BATTLEFORDS UNION HOSPITAL SNOW","SASKATCHEWAN","52.77","-108.29","529.00","4040430","","","2007","2008","","","2007","2008","2007","2007"
"BAY D'ESPOIR 1","NEWFOUNDLAND","47.88","-55.83","11.30","8400411","","","1965","1965","","","1965","1965","1965","1965"
"BAY D'ESPOIR 2","NEWFOUNDLAND","47.98","-55.80","22.90","8400412","","","1965","1967","","","1965","1967","1965","1967"
"BAY D'ESPOIR GEN STN","NEWFOUNDLAND","47.98","-55.80","22.90","8400413","","","1967","2019","","","1967","2019","1967","2006"
"BAY D'ESPOIR LONG POND","NEWFOUNDLAND","47.98","-55.82","169.20","8400414","","","1982","1997","","","1982","1997","1982","1997"
"BAY D'ESPOIR ST ALBANS","NEWFOUNDLAND","47.97","-55.85","229.80","8400415","","","1966","1968","","","1966","1968","1966","1968"
"BAYNES LAKE KOOTENAY RIVER","BRITISH COLUMBIA","49.23","-115.22","800.00","1150690","","","1986","2017","","","1986","2017","1986","2007"
"BAYSWATER","NOVA SCOTIA","44.50","-64.08","30.50","8200437","","","1990","1994","","","1990","1994","1990","1994"
"BEACON HILL","SASKATCHEWAN","54.34","-109.63","533.40","4060452","","","1983","2017","","","1983","2017","1983","2007"
"BEAR CREEK","BRITISH COLUMBIA","48.50","-124.00","350.50","1010720","","","1910","1971","","","1910","1971","1910","1971"
"BEAR ISLAND","ONTARIO","46.98","-80.08","293.80","6080577","","","1916","1962","","","1916","1962","1916","1962"
"BEAR RIVER","NOVA SCOTIA","44.57","-65.63","7.60","8200500","","","1952","2006","","","1952","2006","1952","2006"
"BEAR TOWER","NORTHWEST TERRITORIES","60.52","-113.23","213.40","2200554","","","1989","1990","","","1989","1990","1989","1990"
"BEARBERRY","ALBERTA","51.90","-114.87","1158.20","3020550","","","1969","1970","","","1969","1970","1969","1970"
"BEARDMORE","ONTARIO","49.62","-87.95","304.80","6040572","","","1973","1986","","","1973","1986","1973","1986"
"BEARSKIN LAKE","BRITISH COLUMBIA","58.22","-132.27","958.00","1200730","","","1983","1990","","","1983","1990","1983","1989"
"BEARTOOTH ISLAND","SASKATCHEWAN","59.22","-109.70","238.00","4060468","","WTF","1994","2015","1994","2001","1994","2015","1998","2000"
"BEATRICE","ONTARIO","45.13","-79.38","289.60","6110605","","","1876","1979","","","1876","1979","1876","1979"
"BEATRICE 2","ONTARIO","45.13","-79.40","297.20","6110606","","","1979","2008","","","1979","2008","1979","2006"
"BEATRICE CLIMATE","ONTARIO","45.14","-79.40","297.20","6110607","71694","TBT","2005","2022","2005","2022","2005","2022","2005","2006"
"BEATTON RIVER","BRITISH COLUMBIA","57.22","-121.47","807.70","1180749","","","1977","1979","","","1977","1979","1977","1979"
"BEATTON RIVER A","BRITISH COLUMBIA","57.38","-121.38","839.70","1180750","","","1944","1967","1953","1967","1944","1967","1944","1967"
"BEATTY","SASKATCHEWAN","52.87","-104.85","451.10","4050480","","","1953","1956","","","1953","1956","1953","1956"
"BEAUCEVILLE","QUEBEC","46.20","-70.77","160.00","7020560","","","1913","1985","","","1913","1985","1913","1985"
"BEAUCEVILLE","QUEBEC","46.21","-70.79","229.20","7028754","71323","WHV","1994","2022","1994","2022","1994","2022","",""
"BEAUPORT","QUEBEC","46.88","-71.20","84.10","7010566","","","1982","1985","","","1982","1985","1982","1985"
"BEAUPORT","QUEBEC","46.84","-71.20","10.00","7010565","71578","XBO","1999","2022","1999","2022","1999","2022","",""
"BEAUSEJOUR","MANITOBA","50.13","-96.22","302.40","5030155","","","1959","1985","1959","1985","1960","1979","1960","1979"
"BEAUSEJOUR","QUEBEC","46.67","-71.17","106.70","7020567","","","1975","2020","","","1975","2020","1975","2018"
"BEAUSEJOUR 2","MANITOBA","50.03","-96.47","251.20","5030160","","","1953","2005","","","1953","2005","1953","2005"
"BEAUSOLEIL","ONTARIO","44.85","-79.87","183.00","6110617","","WPB","1994","2007","1994","2007","1994","2007","2004","2006"
"BEAUVAIS PARK","ALBERTA","49.42","-114.10","1524.00","3030555","","","1998","2007","","","1998","2007","1998","2007"
"BEAVER","MANITOBA","50.05","-98.70","268.20","5040166","","","1973","2022","","","1973","2022","1973","2007"
"BEAVER","MANITOBA","50.02","-98.70","262.70","5040165","","","1887","1907","","","1887","1907","1887","1907"
"BEAVER CREEK","SASKATCHEWAN","51.97","-106.70","487.70","4050500","","","1992","2000","","","1992","2000","1992","2000"
"BEAVER CREEK A","YUKON TERRITORY","62.41","-140.87","649.00","2100160","","YXQ","1968","2015","1968","2014","1968","2015","1968","2006"
"BEAVER CREEK A","YUKON TERRITORY","62.41","-140.87","649.50","2100155","","YXQ","2014","2022","2014","2022","2018","2022","",""
"BEAVER CREEK A","YUKON TERRITORY","62.41","-140.87","649.50","2100159","","YXQ","2014","2022","2014","2022","","","",""
"BEAVER CREEK YTG","YUKON TERRITORY","62.37","-140.87","663.00","2100161","","","1993","2008","","","1993","2008","1993","2007"
"BEAVER HILLS WEST","ALBERTA","53.53","-112.53","769.60","3010558","","","1897","1908","","","1897","1908","1897","1908"
"BEAVER ISLAND (AUT)","NOVA SCOTIA","44.82","-62.33","16.00","8200558","71403","WBV","1992","2022","1994","2022","1992","2022","",""
"BEAVER LAKE","BRITISH COLUMBIA","48.50","-123.35","61.00","1010774","","","1894","1952","","","1894","1952","1894","1952"
"BEAVER LAKE RS","ALBERTA","54.75","-112.95","563.90","3060559","","","1980","1995","","","1980","1995","1980","1995"
"BEAVER MINES","ALBERTA","49.47","-114.18","1257.00","3050600","","","1912","2012","","","1912","2012","1912","2007"
"BEAVER MINES","ALBERTA","49.47","-114.18","1257.00","3050602","71304","PBM","2012","2022","2012","2022","2012","2022","",""
"BEAVERBANK","NOVA SCOTIA","44.90","-63.72","182.90","8200550","","","1871","1964","","","1871","1964","1871","1964"
"BEAVERDELL","BRITISH COLUMBIA","49.42","-119.11","780.00","1130770","","","1925","2000","","","1925","2000","1925","2000"
"BEAVERDELL NORTH","BRITISH COLUMBIA","49.48","-119.05","838.20","1130771","","","1975","2006","","","1975","2006","1975","2006"
"BEAVERLODGE CDA","ALBERTA","55.20","-119.40","744.90","3070560","","","1913","2007","","","1913","2007","1913","2006"
"BEAVERLODGE CDA","ALBERTA","55.20","-119.40","745.00","30705E9","","","1996","2002","1996","2002","1996","2002","",""
"BEAVERLODGE RCS","ALBERTA","55.20","-119.40","745.00","3070600","71230","WBM","2001","2022","2001","2022","2001","2022","2001","2007"
"BEAVERLODGE REDLOW","ALBERTA","55.33","-119.40","426.70","3070565","","","1912","1930","","","1912","1930","1912","1930"
"BEAVERTON","ONTARIO","44.42","-79.15","230.10","6110633","","","1948","1959","","","1948","1959","1948","1959"
"BECANCOUR","QUEBEC","46.33","-72.43","14.90","7020570","","","1966","1994","","","1966","1994","1966","1994"
"BECHARD","SASKATCHEWAN","50.05","-104.22","577.60","4010540","","","1974","1982","","","1974","1982","1974","1982"
"BECHER BAY","BRITISH COLUMBIA","48.33","-123.63","12.20","1010780","","","1956","1966","","","1956","1966","1956","1966"
"BEDE","MANITOBA","49.37","-100.93","442.00","5010180","","","1956","1977","","","1956","1977","1956","1977"
"BEDFORD","NOVA SCOTIA","44.73","-63.67","30.50","8200575","","","1954","1966","","","1954","1966","1955","1966"
"BEDFORD BASIN","NOVA SCOTIA","44.71","-63.63","3.50","8200573","71329","ABB","2004","2022","2004","2022","2018","2022","",""
"BEDFORD RANGE","NOVA SCOTIA","44.75","-63.66","9.60","8200574","71325","ABR","2004","2022","2004","2022","2018","2022","",""
"BEECHWOOD","NEW BRUNSWICK","46.53","-67.67","91.40","8100512","","","1966","1997","","","1966","1997","1966","1997"
"BEECHY","SASKATCHEWAN","50.83","-107.31","659.90","4020560","","","1926","2022","","","1926","2022","1926","2007"
"BEETON","ONTARIO","44.10","-79.78","232.90","6110661","","","1916","1970","","","1916","1970","1916","1970"
"BEETON ASSAGI","ONTARIO","44.12","-79.77","221.00","6110662","","","1975","1976","","","1975","1976","1975","1976"
"BEETON GRAHAM","ONTARIO","44.08","-79.78","228.60","6110663","","","1971","1984","","","1971","1984","1971","1984"
"BEETON WATSON","ONTARIO","44.07","-79.85","251.50","6110667","","","1968","1971","","","1968","1971","1968","1971"
"BEISEKER AGCM","ALBERTA","51.38","-113.36","896.00","3020610","71009","PBE","2007","2022","2007","2022","2007","2022","2007","2007"
"BEISEKER VILLAGE","ALBERTA","51.38","-113.53","916.00","3020608","","","1984","1985","","","1984","1985","1984","1985"
"BELGRAVE","ONTARIO","43.80","-81.38","335.30","6120670","","","1962","1964","","","1962","1964","1962","1964"
"BELL FALLS","QUEBEC","45.77","-74.68","121.90","7030640","","","1919","1994","","","1919","1994","1919","1994"
"BELLA BELLA","BRITISH COLUMBIA","52.17","-128.15","12.20","1060810","","","1933","1977","","","1933","1977","1933","1977"
"BELLA BELLA","BRITISH COLUMBIA","52.19","-128.16","43.00","1060815","71582","BBC","2011","2022","2011","2022","2011","2022","",""
"BELLA BELLA A","BRITISH COLUMBIA","52.19","-128.16","43.00","1060811","","","2006","2011","2007","2011","2006","2011","2006","2007"
"BELLA BELLA SHEARWATER","BRITISH COLUMBIA","52.15","-128.08","12.20","1060820","","","1960","1964","","","1960","1964","1960","1964"
"BELLA COOLA","BRITISH COLUMBIA","52.37","-126.69","18.30","1060840","","","1895","2002","","","1895","2002","1895","2002"
"BELLA COOLA A","BRITISH COLUMBIA","52.39","-126.60","35.70","1060841","71206","YBD","1983","2017","1983","2013","1983","2017","1983","2007"
"BELLA COOLA A","BRITISH COLUMBIA","52.39","-126.60","35.70","1060848","","YBD","2014","2022","2014","2022","2018","2022","",""
"BELLA COOLA A","BRITISH COLUMBIA","52.39","-126.60","35.70","1060845","","YBD","2013","2022","2013","2022","","","",""
"BELLA COOLA AIRPORT","BRITISH COLUMBIA","52.39","-126.59","36.90","1060844","71533","VBD","2015","2022","2015","2022","2015","2022","",""
"BELLA COOLA BC HYDRO","BRITISH COLUMBIA","52.37","-126.82","13.70","1060842","","","1961","1985","","","1961","1985","1961","1985"
"BELLE ISLE","NEWFOUNDLAND","51.88","-55.38","129.80","8500500","","","1871","1969","1953","1969","1871","1969","1871","1969"
"BELLE PLAGE","QUEBEC","48.68","-74.02","411.50","7070595","","","1975","1985","","","1975","1985","1975","1985"
"BELLE PLAINE","SASKATCHEWAN","50.45","-105.20","582.20","4010568","","","1978","1983","","","1978","1983","1978","1983"
"BELLE RIVER","ONTARIO","42.30","-82.70","183.50","6130681","","WDD","1994","2005","1994","2005","1994","2005","",""
"BELLEDUNE","NEW BRUNSWICK","47.90","-65.83","7.60","8100514","","","1971","1990","","","1971","1990","1971","1990"
"BELLEDUNE CS","NEW BRUNSWICK","47.90","-65.83","7.60","8100515","","","1991","2002","","","1991","2002","1991","2002"
"BELLETERRE","QUEBEC","47.38","-78.70","321.60","7080600","","","1951","2004","","","1951","2004","1951","2004"
"BELLEVILLE","ONTARIO","44.15","-77.39","76.20","6150689","","","1866","2022","","","1866","2022","1866","2006"
"BELLEVILLE OWRC","ONTARIO","44.17","-77.37","77.70","6150700","","","1959","1975","","","1959","1975","1959","1975"
"BELLEVILLE PAR LAB","ONTARIO","44.17","-77.35","88.40","6150717","","","1929","1959","","","1929","1959","1929","1959"
"BELLIS","ALBERTA","54.13","-112.15","660.60","3010616","","","1979","1992","","","1979","1992","1979","1992"
"BELLIS","ALBERTA","54.18","-112.17","685.80","3010615","","","1961","1969","","","1961","1969","1961","1969"
"BELLROCK","ONTARIO","44.48","-76.77","146.30","6100720","","","1957","1978","","","1957","1978","1957","1978"
"BELLS CORNERS","ONTARIO","45.33","-75.82","75.00","6100722","","","1991","1991","","","1991","1991","1991","1991"
"BELLSHILL AGCM","ALBERTA","52.58","-111.47","721.00","3010650","71010","PBL","2007","2022","2007","2022","2007","2022","",""
"BELMONT","MANITOBA","49.40","-99.43","447.40","5010190","","","1891","1906","","","1891","1906","1891","1906"
"BELMONT","MANITOBA","49.30","-99.45","481.60","5010191","","","1984","2016","","","1984","2016","1984","2007"
"BENALTO","ALBERTA","52.30","-114.27","963.50","3020620","","","1962","1963","","","1962","1963","1962","1963"
"BENGOUGH","SASKATCHEWAN","49.38","-105.13","688.70","4030569","","","1982","1997","","","1982","1997","1982","1997"
"BENNETT","BRITISH COLUMBIA","59.85","-134.98","662.00","1200847","","","1972","1974","","","1972","1974","1974","1974"
"BENNY","ONTARIO","46.52","-81.63","386.80","6060725","","","1948","1956","","","1948","1956","1948","1956"
"BENSON","SASKATCHEWAN","49.45","-102.98","588.00","4010570","","","1973","2006","","","1973","2006","1973","2006"
"BENSON LAKE","BRITISH COLUMBIA","50.37","-127.23","144.80","1030850","","","1959","1972","","","1959","1972","1959","1972"
"BENTON","NEWFOUNDLAND","48.90","-54.42","48.00","8400505","","","1988","1993","","","1988","1993","1988","1993"
"BERENS RIVER","MANITOBA","52.35","-97.03","217.30","5030200","","","1905","1964","","","1905","1964","1905","1964"
"BERENS RIVER A","MANITOBA","52.36","-97.02","222.20","5030201","","YBV","2015","2022","2015","2022","","","",""
"BERENS RIVER A","MANITOBA","52.36","-97.02","222.20","5030204","","YBV","2015","2022","2015","2022","2018","2022","",""
"BERENS RIVER A","MANITOBA","52.36","-97.02","222.20","5030202","","YBV","1995","2015","1995","2015","","","",""
"BERENS RIVER CS","MANITOBA","52.36","-97.02","221.90","5030203","71158","WCF","1985","2022","1985","2022","1985","2022","1985","2007"
"BERGLAND","ONTARIO","48.95","-94.35","363.90","6020727","","","1980","1981","","","1980","1981","1980","1981"
"BERLAND LO","ALBERTA","54.08","-117.40","1231.00","3060630","","","1958","2011","","","1958","2011","1958","2007"
"BERNARD HARBOUR","NUNAVUT","68.78","-114.83","64.60","2300555","","","1959","1993","1992","1993","1959","1993","1959","1963"
"BERNY","ALBERTA","54.75","-112.35","579.10","3060633","","","1981","1981","","","1981","1981","1981","1981"
"BERRY CREEK","ALBERTA","51.02","-111.03","732.00","3020636","","","1982","1990","","","1982","1990","1982","1990"
"BERRY MOUNTAIN","QUEBEC","48.67","-66.15","152.40","7050675","","","1963","1972","","","1963","1972","1963","1972"
"BERRYS BAY","NOVA SCOTIA","43.66","-65.26","7.00","8200577","","","1998","2001","","","1998","2001","1998","2001"
"BERRYTON","NEW BRUNSWICK","45.92","-64.88","106.70","8100516","","","1964","1965","","","1964","1965","1964","1965"
"BERSIMIS","QUEBEC","48.97","-68.62","45.70","7040680","","","1923","1961","","","1923","1961","1923","1960"
"BERSIMIS S","QUEBEC","48.95","-68.65","18.30","7040690","","","1973","1973","","","1973","1973","1973","1973"
"BERTHIERVILLE","QUEBEC","46.05","-73.18","12.20","7010720","","","1919","1995","","","1919","1995","1919","1995"
"BERTRAND","NEW BRUNSWICK","47.75","-65.07","22.90","8100518","","","1964","2011","","","1964","2011","1964","2006"
"BERTWELL","SASKATCHEWAN","52.60","-102.57","518.20","4080580","","","1958","1958","","","1958","1958","1958","1958"
"BERWICK","NOVA SCOTIA","45.08","-64.73","39.60","8200578","","","1994","2015","","","1994","2015","1994","2006"
"BERWYN","ALBERTA","56.15","-117.75","654.70","3070640","","","1921","1958","","","1921","1958","1921","1958"
"BERWYN CDA","ALBERTA","56.15","-117.68","626.40","3070642","","","1975","1993","","","1975","1993","1975","1993"
"BETHANIE","QUEBEC","45.50","-72.43","198.10","7020750","","","1968","1985","","","1968","1985","1968","1985"
"BGE C LAC CHATEAUVERT","QUEBEC","47.77","-73.90","382.50","7070451","","","1942","1982","","","1942","1982","1942","1981"
"BIC","QUEBEC","48.37","-68.70","18.30","7050760","","","1882","1968","","","1882","1968","1882","1968"
"BIC","QUEBEC","48.40","-68.67","23.00","7050762","","","1966","1985","","","1966","1985","1966","1985"
"BICKLEIGH","SASKATCHEWAN","51.29","-108.41","676.40","4040587","","","1988","2021","","","1988","2021","1988","2007"
"BIG BALD MOUNTAIN","NEW BRUNSWICK","47.20","-66.43","","8100525","","","1935","1946","","","1935","1946","1935","1946"
"BIG BEAVER","SASKATCHEWAN","49.02","-105.02","742.90","4030594","","","1985","1989","","","1985","1989","1985","1989"
"BIG CHAUDIERE FALLS","ONTARIO","46.15","-80.02","","6080729","","","1918","1933","","","1918","1933","1918","1933"
"BIG CHUTE","ONTARIO","44.88","-79.67","190.50","6110731","","","1913","1972","","","1913","1972","1913","1972"
"BIG COULEE","ALBERTA","49.75","-113.80","1325.00","3030665","","","1980","1985","","","1980","1985","1980","1985"
"BIG CREEK","BRITISH COLUMBIA","51.67","-123.07","1175.00","1080870","","","1893","1998","","","1893","1998","1893","1998"
"BIG CREEK (AUT)","BRITISH COLUMBIA","51.26","-123.09","1670.00","10808G0","71760","WBG","1994","2011","1994","2003","1995","2011","",""
"BIG INTERVALE","NOVA SCOTIA","46.83","-60.62","39.60","8200579","","","1984","1992","","","1984","1992","1984","1992"
"BIG OLIVER CREEK","BRITISH COLUMBIA","54.83","-128.30","121.90","1070873","","","1973","1975","","","1973","1975","1973","1975"
"BIG RIVER","SASKATCHEWAN","53.83","-107.03","502.90","4060620","","","1957","1998","","","1957","1998","1962","1998"
"BIG RIVER EXP ST","SASKATCHEWAN","53.85","-107.00","485.20","4060628","","","1951","1956","","","1951","1956","1951","1955"
"BIG STONE","ALBERTA","51.17","-111.20","773.90","3020676","","","1982","2000","","","1982","2000","1982","2000"
"BIG STONE LOCKHART","ALBERTA","51.20","-111.12","789.00","3020670","","","2002","2004","","","2002","2004","2002","2004"
"BIG TROUT LAKE","ONTARIO","53.82","-89.89","222.50","6010740","71208","OTL","2012","2022","2012","2022","2012","2022","",""
"BIG TROUT LAKE","ONTARIO","53.83","-89.87","224.10","6010738","","","1939","1992","1953","1992","1939","1992","1939","1992"
"BIG TROUT LAKE A","ONTARIO","53.82","-89.90","222.50","6010735","71675","YTL","2011","2022","2011","2022","2011","2022","",""
"BIG TROUT LAKE READAC","ONTARIO","53.82","-89.90","222.20","6010739","","TBL","1992","2013","1994","2013","1992","2013","",""
"BIG VALLEY","MANITOBA","50.47","-99.45","381.00","5040214","","","1977","1978","","","1977","1978","1977","1978"
"BIG VALLEY","ALBERTA","52.03","-112.75","829.10","3020677","","","1970","1986","","","1970","1986","1970","1986"
"BIG VALLEY AGCM","ALBERTA","52.00","-112.80","870.00","3020679","71011","PBV","2007","2022","2007","2022","2007","2022","",""
"BIG VALLEY WEST","ALBERTA","52.03","-112.97","792.50","3020678","","","1980","1983","","","1980","1983","1980","1983"
"BIG WHITE","BRITISH COLUMBIA","49.73","-118.93","1841.00","1130874","","","1981","1999","","","1981","1999","1981","1999"
"BIG WHITE MTN LODGE","BRITISH COLUMBIA","49.73","-118.93","1844.00","1130875","","","1965","1968","","","1965","1968","1965","1968"
"BIGGAR","SASKATCHEWAN","52.07","-107.98","670.60","4040600","","","1917","2005","","","1917","2005","1917","2005"
"BIGHORN DAM","ALBERTA","52.32","-116.33","1341.00","30506GN","","","1969","2010","","","1969","2010","1969","2007"
"BILLINGS","BRITISH COLUMBIA","49.02","-118.23","519.00","1140876","","","1984","2022","","","1984","2022","1984","2007"
"BINBROOK","ONTARIO","43.12","-79.83","205.70","6130740","","","1967","1970","","","1967","1970","1967","1970"
"BINDLOSS","ALBERTA","50.68","-110.17","640.10","3020680","","","1948","1959","","","1948","1959","1948","1959"
"BINDLOSS EAST","ALBERTA","50.89","-110.20","636.00","3020690","","","1980","2008","","","1980","2008","1980","2007"
"BINDLOSS EXP ST","ALBERTA","50.87","-110.18","641.60","3020696","","","1954","1955","","","1954","1955","1954","1955"
"BINGHAM CHUTE","ONTARIO","46.08","-79.40","242.30","6110745","","","1933","1970","","","1933","1970","1933","1970"
"BINSCARTH","MANITOBA","50.58","-101.27","525.80","5010216","","","1973","2005","","","1973","2005","1973","2005"
"BIRCH HILLS","SASKATCHEWAN","53.00","-105.48","459.90","4050675","","","1983","1984","","","1983","1984","1983","1984"
"BIRCH LAKE","ALBERTA","53.38","-111.77","689.00","3010698","","","1987","1988","","","1987","1988","1987","1988"
"BIRCH MOUNTAIN LO","ALBERTA","57.72","-111.85","853.40","3060700","","","1960","2011","","","1960","2011","1960","2007"
"BIRCH MOUNTAIN TOWER","ALBERTA","58.10","-112.15","731.00","3070701","","","1976","1990","","","1976","1990","1976","1990"
"BIRCH RIVER","MANITOBA","52.52","-100.92","267.90","5040218","","","1970","2000","","","1970","2000","1970","2000"
"BIRCHBANK","BRITISH COLUMBIA","49.17","-117.72","469.40","1140877","","","1924","1945","","","1924","1945","1924","1945"
"BIRCHTON","QUEBEC","45.37","-71.67","","7020785","","","1973","1981","","","1973","1981","1973","1981"
"BIRCHTOWN","NOVA SCOTIA","45.45","-61.48","68.60","8200581","","","1958","1977","","","1958","1977","1958","1977"
"BIRD","MANITOBA","56.50","-94.20","86.90","5060220","","","1957","1963","1957","1963","1957","1963","1957","1963"
"BIRD ROCKS","QUEBEC","47.85","-61.13","32.30","7050790","","","1881","1934","","","1881","1934","1881","1934"
"BIRDS HILL NURSERY","MANITOBA","49.98","-96.83","256.00","5020222","","","1969","1969","","","1969","1969","1969","1969"
"BIRDS HILL PINE RIDGE","MANITOBA","49.98","-96.93","238.40","5020224","","","1988","1992","","","1988","1992","1988","1992"
"BIRDTAIL","MANITOBA","50.82","-100.92","577.60","5010227","","","1989","1995","","","1989","1995","1989","1995"
"BIRKENHEAD LAKE","BRITISH COLUMBIA","50.57","-122.65","715.10","1110Q78","","","1983","1985","","","1983","1985","1983","1985"
"BIRNIE","MANITOBA","50.50","-99.48","432.80","5040230","","","1979","1983","","","1979","1983","1979","1983"
"BIRSAY","SASKATCHEWAN","51.08","-106.97","594.40","4020701","","","1972","1981","","","1972","1981","1972","1981"
"BIRSAY","SASKATCHEWAN","51.15","-106.88","589.80","4020700","","","1970","1971","","","1970","1971","1970","1971"
"BIRTLE","MANITOBA","50.43","-101.05","522.00","5010240","","","1883","2000","","","1883","2000","1883","2000"
"BISCOTASING","ONTARIO","47.30","-82.10","406.90","6060773","","","1914","2000","","","1914","2000","1914","2000"
"BISHOPRIC","SASKATCHEWAN","50.00","-105.78","679.70","4020720","","","1947","1975","","","1947","1975","1947","1975"
"BISHOPS FALLS","NEWFOUNDLAND","49.02","-55.47","9.10","8400550","","","1955","1962","","","1955","1962","1955","1961"
"BISHOPS FALLS","NEWFOUNDLAND","49.02","-55.50","21.30","8400549","","","1988","1993","","","1988","1993","1988","1993"
"BISHOPS FALLS PEAT MINE","NEWFOUNDLAND","49.05","-55.42","15.20","8400552","","","1980","1984","","","1980","1984","1980","1982"
"BISHOPTON","QUEBEC","45.58","-71.57","213.40","7020800","","","1948","1996","","","1948","1996","1948","1996"
"BISMARK","ALBERTA","52.73","-113.87","","3020702","","","1906","1916","","","1906","1916","1906","1916"
"BISON LO","ALBERTA","57.12","-116.50","731.50","3070703","","","1963","2011","","","1963","2011","1963","2007"
"BISSETT","MANITOBA","50.97","-95.63","","5030280","","","1933","1952","","","1933","1952","1933","1952"
"BISSETT","MANITOBA","51.03","-95.70","259.00","5030282","","","1968","1997","1968","1985","1968","1997","1968","1997"
"BISTCHO LAKE (F5)","ALBERTA","59.92","-118.95","576.00","307A010","","","1999","2004","","","1999","2004","1999","2001"
"BITTERN CREEK","SASKATCHEWAN","53.98","-105.87","518.20","4060760","","","1953","1956","","","1953","1956","1953","1956"
"BITTERN LAKE","ALBERTA","53.07","-113.00","745.20","3010704","","","1907","1926","","","1907","1926","1907","1926"
"BITUMONT LO","ALBERTA","57.37","-111.53","348.70","3060705","","","1962","2008","","","1962","2008","1962","2007"
"BLACK CREEK","BRITISH COLUMBIA","49.85","-125.13","46.00","1020880","","","1964","2008","","","1964","2008","1964","2005"
"BLACK CREEK SE","BRITISH COLUMBIA","49.80","-125.09","87.80","1020881","","","2006","2016","","","2006","2016","2006","2007"
"BLACK DIAMOND","ALBERTA","50.71","-114.15","1156.00","3030680","71982","PBD","2008","2022","2008","2022","2008","2022","",""
"BLACK DUCK","NEWFOUNDLAND","48.57","-58.37","35.40","8400570","","","1981","2004","","","1981","2004","1981","2004"
"BLACK LAKE","QUEBEC","46.05","-71.37","262.70","7020808","","","1961","1962","","","1961","1962","1961","1962"
"BLACK RIVER","NOVA SCOTIA","46.13","-61.33","106.70","8200584","","","1973","1975","","","1973","1975","1973","1975"
"BLACK STURGEON LAKE","ONTARIO","49.32","-88.85","253.00","6040785","","","1951","1968","","","1951","1968","1951","1968"
"BLACK STURGEON LAKE 2","ONTARIO","49.30","-88.80","253.00","6040786","","","1968","1971","","","1968","1971","1968","1971"
"BLACK STURGEON RIVER","ONTARIO","49.07","-88.62","219.50","6040790","","","1957","1959","","","1957","1959","1958","1959"
"BLACKCOMB BASE SLIDING CENTER","BRITISH COLUMBIA","50.10","-122.94","937.00","1100881","71756","VOI","2007","2018","2007","2018","2007","2018","",""
"BLACKCOMB BASE SLIDING CENTRE BOTTOM","BRITISH COLUMBIA","50.11","-122.94","816.60","1100882","","VON","2008","2010","2008","2010","2008","2010","",""
"BLACKCOMB MOUNTAIN 1540","BRITISH COLUMBIA","50.10","-122.92","1540.20","1100Q7Q","","","1983","1994","","","1983","1994","1983","1994"
"BLACKCOMB MOUNTAIN 1860","BRITISH COLUMBIA","50.10","-122.92","1860.90","1100879","","","1980","1994","","","1980","1994","1981","1990"
"BLACKDOME MOUNTAIN","BRITISH COLUMBIA","51.32","-122.50","1898.00","1080QQ0","","","1986","1991","","","1986","1991","1986","1991"
"BLACKIE","ALBERTA","50.73","-113.60","1066.80","3030GAA","","","1970","1972","","","1970","1972","1970","1972"
"BLACKIE 2W","ALBERTA","50.60","-113.68","1024.10","3030GJJ","","","1972","1982","","","1972","1982","1972","1982"
"BLACKIE AGCM","ALBERTA","50.55","-113.64","1019.00","3030690","","PXC","2012","2022","2012","2022","2018","2022","",""
"BLACKIE NORTH","ALBERTA","50.77","-113.67","1066.80","3030GJ1","","","1972","1977","","","1972","1977","1972","1977"
"BLACKIE NW","ALBERTA","50.77","-113.77","1066.80","3030PAJ","","","1977","1977","","","1977","1977","1977","1977"
"BLACKSTOCK","ONTARIO","44.10","-78.83","291.00","6150790","","","2001","2016","","","2001","2016","2001","2006"
"BLACKSTONE LO","ALBERTA","52.78","-116.35","1569.70","3010712","","","1965","2011","","","1965","2011","1965","2007"
"BLACKSTRAP","SASKATCHEWAN","51.78","-106.40","536.40","4050768","","","1974","1981","","","1974","1981","1974","1980"
"BLACKWATER CREEK","BRITISH COLUMBIA","55.53","-123.65","732.00","1180881","","","1989","1997","","","1989","1997","1989","1997"
"BLAINE LAKE","SASKATCHEWAN","52.77","-106.90","518.20","4050770","","","1983","1983","","","1983","1983","1983","1983"
"BLAIRMORE HQTS RS","ALBERTA","49.62","-114.43","1310.60","30507AC","","","1971","1999","","","1971","1999","1971","1999"
"BLAKEBURN","BRITISH COLUMBIA","49.48","-120.73","1485.00","1120882","","","1973","1973","","","1973","1973","1973","1973"
"BLANC SABLON","QUEBEC","51.42","-57.22","19.20","7040812","","","1967","1982","1967","1982","1967","1982","1967","1982"
"BLANC SABLON","QUEBEC","51.42","-57.20","7.60","7040811","","","1965","1975","","","1965","1975","1965","1975"
"BLANC-SABLON A (AUT)","QUEBEC","51.45","-57.18","36.90","704S004","71808","YBX","2008","2008","","","2008","2008","",""
"BLANCHARD RIVER","YUKON TERRITORY","60.00","-136.77","836.00","2100163","","","1986","2012","","","1986","2012","1986","2007"
"BLANCHE","QUEBEC","45.75","-75.33","213.00","7030810","","","1974","1994","","","1974","1994","1974","1994"
"BLENHEIM","ONTARIO","42.67","-82.02","205.10","6120795","","","1883","1897","","","1883","1897","1883","1897"
"BLENHEIM 1","ONTARIO","42.31","-82.03","200.00","6130815","","","2006","2009","","","2006","2009","2006","2006"
"BLIND CHANNEL","BRITISH COLUMBIA","50.42","-125.50","3.00","1020885","","","1956","1993","","","1956","1993","1956","1993"
"BLIND RIVER","ONTARIO","46.20","-83.00","183.20","6050801","","","1926","1959","","","1926","1959","1926","1959"
"BLIND RIVER HYDRO CENTRE","ONTARIO","46.20","-83.02","189.00","6050805","","","1982","1989","","","1982","1989","1982","1989"
"BLINDMAN","ALBERTA","52.77","-114.48","960.10","3020715","","","1963","1992","","","1963","1992","1963","1992"
"BLISSVILLE","NEW BRUNSWICK","45.62","-66.55","22.30","8100550","","","1940","1951","","","1940","1951","1940","1951"
"BLOOD INDIAN CREEK","ALBERTA","50.92","-111.07","640.10","3020717","","","1982","1993","","","1982","1993","1982","1993"
"BLOOD TRIBE AGDM","ALBERTA","49.57","-113.05","980.00","3030720","71517","PBT","2004","2022","2004","2022","2004","2022","2004","2007"
"BLOOMFIELD","ONTARIO","43.98","-77.22","91.40","6150815","","","1896","2014","","","1896","2014","1896","2006"
"BLOOMFIELD WEST","ONTARIO","43.98","-77.25","90.00","6150816","","","1966","1997","","","1966","1997","1966","1997"
"BLOUGH LAKE","QUEBEC","51.75","-68.33","","7040814","","","1956","1956","","","1956","1956","1956","1956"
"BLUE ACTON","ONTARIO","43.60","-80.05","365.80","6150HA7","","","1974","1976","","","1974","1976","1974","1976"
"BLUE CORWHIN","ONTARIO","43.53","-80.12","350.50","6140Q17","","","1974","1976","","","1974","1976","1974","1976"
"BLUE MOUNTAIN","NOVA SCOTIA","45.48","-62.42","213.40","8200587","","","1956","1957","","","1956","1957","1956","1957"
"BLUE MOUNTAIN TOWER","NEW BRUNSWICK","47.80","-66.30","160.00","8100558","","","1935","1951","","","1935","1951","1935","1950"
"BLUE RIVER A","BRITISH COLUMBIA","52.12","-119.29","690.40","1160902","","YCP","2015","2022","2015","2022","2018","2022","",""
"BLUE RIVER A","BRITISH COLUMBIA","52.13","-119.29","690.40","1160899","","YCP","1969","2022","1969","2015","1969","2022","1969","2007"
"BLUE RIVER A","BRITISH COLUMBIA","52.12","-119.29","690.40","1160898","","YCP","2015","2022","2015","2022","","","",""
"BLUE RIVER CS","BRITISH COLUMBIA","52.13","-119.29","682.80","1160H99","71883","WSV","1992","2022","1993","2022","1992","2022","1997","2006"
"BLUE RIVER NORTH","BRITISH COLUMBIA","52.15","-119.28","688.80","1160900","","","1929","1985","","","1929","1985","1929","1985"
"BLUE ROCKWOOD","ONTARIO","43.58","-80.12","350.50","6140QAG","","","1974","1976","","","1974","1976","1974","1976"
"BLUE SCOUT","ONTARIO","43.62","-80.08","342.90","6140QJ7","","","1974","1976","","","1974","1976","1974","1976"
"BLUE SPRINGS CREEK","ONTARIO","43.63","-80.12","373.40","6140818","","","1966","1980","","","1966","1980","1966","1980"
"BLUEBERRY CREEK","ALBERTA","55.92","-119.00","621.80","3070718","","","1993","1996","","","1993","1996","1993","1996"
"BLUEBERRY MTN CDA EPF","ALBERTA","55.93","-119.13","731.50","3070720","","","1955","1972","","","1955","1972","1955","1972"
"BLUEHILL LO","ALBERTA","51.70","-115.22","1950.70","3050725","","","1962","2011","","","1962","2011","1962","2007"
"BLUFFTON","ALBERTA","52.75","-114.28","908.30","3020730","","","1963","1984","","","1963","1984","1964","1984"
"BLUMENHOF","SASKATCHEWAN","50.03","-107.77","899.20","4020772","","","1986","1991","","","1986","1991","1986","1991"
"BLYTH","ONTARIO","43.72","-81.38","350.50","6120819","","","1959","2010","","","1959","2010","1959","2006"
"BOAT BLUFF","BRITISH COLUMBIA","52.64","-128.52","10.70","1060901","","WZM","1974","2022","1994","2001","1974","2022","1974","2007"
"BOAT HARBOUR","NEWFOUNDLAND","47.43","-54.84","15.20","8400578","","","1982","2009","","","1982","2009","1982","2006"
"BOB CREEK","ALBERTA","49.88","-114.25","1371.60","3050731","","","1971","1983","","","1971","1983","1971","1983"
"BOB QUINN","BRITISH COLUMBIA","56.98","-130.25","579.10","1200R0A","","","1974","1974","","","1974","1974","1974","1974"
"BOB QUINN AGS","BRITISH COLUMBIA","56.97","-130.25","610.00","1200R0J","","BW4","1977","1994","","","1977","1994","1977","1994"
"BOB QUINN LAKE 2","BRITISH COLUMBIA","56.97","-130.25","609.60","120090J","","","1991","1991","","","1991","1991","1991","1991"
"BOBBIE BURNS","BRITISH COLUMBIA","50.95","-116.93","1370.00","1170R01","","","1981","2001","","","1981","2001","1981","2000"
"BOBCAYGEON","ONTARIO","44.52","-78.62","260.00","6160820","","","1986","1993","","","1986","1993","1986","1993"
"BOBCAYGEON","ONTARIO","44.58","-78.52","248.10","6160822","","","1981","1985","","","1981","1985","1981","1985"
"BODO AGDM","ALBERTA","52.12","-110.10","687.00","3010730","71214","XBA","1995","2022","1995","2022","2002","2022","2002","2007"
"BOGGY CREEK","MANITOBA","51.54","-101.39","609.00","5010310","","","1977","2014","","","1977","2014","1977","2007"
"BOGNOR","ONTARIO","44.67","-80.83","249.90","6110823","","","1883","1900","","","1883","1900","1883","1900"
"BOISSEVAIN","MANITOBA","49.23","-100.05","510.50","5020320","","","1912","1981","","","1912","1981","1912","1981"
"BOISSEVAIN 2","MANITOBA","49.22","-100.08","525.80","5020321","","","1948","1970","","","1948","1970","1948","1970"
"BOLTON NORTH","ONTARIO","43.92","-79.75","261.00","615S004","","","1995","2001","","","1995","2001","1995","2001"
"BOLTON SPS","ONTARIO","43.88","-79.73","213.10","6150825","","","1978","1992","","","1978","1992","1978","1992"
"BON ACCORD","NEW BRUNSWICK","46.65","-67.58","450.30","8100566","","","1966","2011","","","1966","2011","1966","2005"
"BON CONSEIL EXP ST","QUEBEC","46.00","-72.40","76.20","7020820","","","1960","1960","","","1960","1960","1960","1960"
"BONANZA CREEK","YUKON TERRITORY","63.97","-139.35","396.20","2100164","","","1975","1976","","","1975","1976","1975","1976"
"BONAVENTURE","QUEBEC","48.05","-65.48","19.50","7050817","","","1917","1948","","","1917","1948","1917","1948"
"BONAVISTA","NEWFOUNDLAND","48.67","-53.11","25.60","8400600","","WVA","1956","2006","1959","2006","1956","2006","1956","2006"
"BONAVISTA","NEWFOUNDLAND","48.67","-53.11","25.60","8400601","71178","AVA","2006","2022","2006","2022","2006","2022","2006","2007"
"BONFIELD","ONTARIO","46.22","-79.13","265.00","6080HB6","","","1983","1992","","","1983","1992","1983","1992"
"BONILLA ISLAND","BRITISH COLUMBIA","53.49","-130.64","16.20","1060902","","WVB","1960","2022","1994","2001","1960","2022","1960","2007"
"BONILLA ISLAND (AUT)","BRITISH COLUMBIA","53.49","-130.64","12.50","1060R0K","71484","WWL","1994","2022","1994","2022","1994","2022","2002","2007"
"BONNARD","QUEBEC","50.73","-71.05","506.00","7060825","","","1961","2000","","","1961","2000","1961","2000"
"BONNARD 1","QUEBEC","50.73","-71.01","498.00","7060826","71383","WKD","1994","2022","1994","2022","1994","2022","",""
"BONNER LAKE","ONTARIO","49.38","-82.12","245.00","6070QK6","","","1990","2022","","","1990","2022","1990","2006"
"BONNIE VIEW","ALBERTA","49.32","-112.63","1250.00","3040735","","","1977","1981","","","1977","1981","1977","1981"
"BONNINGTON FALLS","BRITISH COLUMBIA","49.45","-117.48","457.20","1140903","","","1924","1939","","","1924","1939","1924","1939"
"BONNYVILLE EXP ST","ALBERTA","54.28","-110.63","548.60","3080740","","","1952","1954","","","1952","1954","1952","1954"
"BONSECOURS","QUEBEC","45.40","-72.27","297.20","7020828","","","1967","2022","","","1967","2022","1967","2018"
"BORDEN","PRINCE EDWARD ISLAND","46.25","-63.70","7.60","8300150","","","1958","1967","","","1958","1967","1958","1967"
"BORDEN 18N","SASKATCHEWAN","52.55","-107.23","541.00","4050774","","","1999","2007","","","1999","2007","1999","2007"
"BORDEN A","ONTARIO","44.27","-79.93","227.40","6110827","","","1966","1970","","","1966","1970","1966","1970"
"BORDEN AWOS","ONTARIO","44.27","-79.91","222.50","611B002","71534","YBN","2000","2022","2005","2022","2000","2022","",""
"BORDEN STP","ONTARIO","44.30","-79.90","201.20","6110HK7","","","1985","1992","","","1985","1992","1985","1992"
"BORDER (AUT)","QUEBEC","55.33","-63.22","479.00","7110831","","WTB","1993","1998","1994","1998","1993","1998","",""
"BORDER A","QUEBEC","55.33","-63.22","464.80","7110830","","","1965","1979","1965","1979","1965","1979","1965","1979"
"BOSS MOUNTAIN","BRITISH COLUMBIA","52.10","-120.88","1531.60","1090904","","","1967","1984","","","1967","1984","1967","1984"
"BOSTON BAR","BRITISH COLUMBIA","49.87","-121.45","163.10","1110R04","","","1968","1968","","","1968","1968","1968","1968"
"BOSTON BAR","BRITISH COLUMBIA","49.87","-121.43","199.90","111090M","","","1974","1989","","","1974","1989","1974","1989"
"BOSTON BAR ALPINE","BRITISH COLUMBIA","49.92","-121.45","213.00","111090D","","","1985","1985","","","1985","1985","1985","1985"
"BOSWELL","BRITISH COLUMBIA","49.48","-116.75","573.00","1140905","","","1911","1940","","","1911","1940","1911","1940"
"BOTWOOD","NEWFOUNDLAND","49.15","-55.35","15.20","8400650","","","1937","1995","","","1937","1995","1937","1995"
"BOUCTOUCHE","NEW BRUNSWICK","46.52","-64.72","10.70","8100590","","","1965","1999","","","1965","1999","1965","1999"
"BOUCTOUCHE CDA","NEW BRUNSWICK","46.43","-64.77","36.00","8100592","","","1982","1991","","","1982","1991","1982","1991"
"BOUCTOUCHE CDA CS","NEW BRUNSWICK","46.43","-64.77","35.90","8100593","71666","ABT","1991","2021","2005","2021","1991","2021","1991","2007"
"BOUNDARY","YUKON TERRITORY","64.23","-140.35","1036.30","2100165","","","1967","1978","","","1967","1978","1967","1978"
"BOUNDARY LAKE","BRITISH COLUMBIA","56.33","-120.10","711.10","1180R07","","","1982","1987","","","1982","1987","1982","1987"
"BOURGET","ONTARIO","45.47","-75.17","65.50","6100828","","","1950","1951","","","1950","1951","1950","1951"
"BOVINE CREEK AFS","ALBERTA","56.11","-112.55","518.00","3060756","","","1995","2011","","","1995","2011","1995","2007"
"BOW ISLAND","ALBERTA","49.87","-111.38","798.90","3030769","","","2003","2004","","","2003","2004","2003","2004"
"BOW ISLAND","ALBERTA","49.73","-111.45","816.60","3030768","71231","WXL","1993","2022","1994","2022","1993","2022","1996","2007"
"BOW ISLAND EXP ST","ALBERTA","49.87","-111.37","798.60","3030770","","","1955","1959","","","1955","1959","1955","1959"
"BOW ISLAND IRRIGATION AGDM","ALBERTA","49.87","-111.37","796.00","3030772","71519","PXL","2004","2022","2004","2022","2004","2022","2005","2006"
"BOW ISLAND RIVERS DEV","ALBERTA","49.87","-111.37","798.90","3030773","","","1958","1976","","","1958","1976","1958","1976"
"BOW SUMMIT (PC)","ALBERTA","51.72","-116.48","2011.70","305A002","","","1999","2007","","","1999","2007","1999","2007"
"BOW VALLEY","ALBERTA","51.08","-115.07","1297.50","3050778","71232","WXA","1993","2022","1994","2022","1993","2022","1996","2007"
"BOW VALLEY PROV PARK","ALBERTA","51.08","-115.07","1318.00","3050779","","","1967","1990","","","1967","1990","1967","1990"
"BOWDEN","ALBERTA","51.98","-114.02","914.70","3020760","","","1957","1985","","","1957","1985","1957","1985"
"BOWEN ISL ARBUTUS BAY","BRITISH COLUMBIA","49.33","-123.38","21.00","1040909","","","1961","1998","","","1961","1998","1961","1998"
"BOWEN ISLAND","BRITISH COLUMBIA","49.35","-123.42","22.90","1040908","","","1959","1965","","","1959","1965","1959","1965"
"BOWEN ISLAND BOWEN BAY","BRITISH COLUMBIA","49.36","-123.42","36.60","104090R","","","1966","2014","","","1966","2014","1966","2007"
"BOWEN ISLAND CATES BAY","BRITISH COLUMBIA","49.41","-123.32","27.00","1040911","","","1987","2000","","","1987","2000","1987","2000"
"BOWEN ISLAND JOSEPHINE RIDGE","BRITISH COLUMBIA","49.37","-123.38","160.00","104091A","","","1992","1996","","","1992","1996","1992","1996"
"BOWEN ISLAND KILLARNEY LAKE","BRITISH COLUMBIA","49.40","-123.37","50.00","1040R1J","","","1992","1996","","","1992","1996","1992","1996"
"BOWEN ISLAND MILLERS LDG","BRITISH COLUMBIA","49.39","-123.33","91.10","1040R09","","","1972","2001","","","1972","2001","1972","2001"
"BOWEN ISLAND SUNSET PARK","BRITISH COLUMBIA","49.36","-123.40","185.00","104091B","","","1992","2022","","","1992","2022","1992","2007"
"BOWMANVILLE","ONTARIO","43.92","-78.65","121.90","6150829","","","1947","1957","","","1947","1957","1947","1957"
"BOWMANVILLE MOSTERT","ONTARIO","43.92","-78.67","99.10","6150830","","","1966","2002","","","1966","2002","1966","2002"
"BOWNESS","ALBERTA","51.12","-114.22","1036.30","3030775","","","1959","1959","","","1959","1959","1959","1959"
"BOWRON LAKE","BRITISH COLUMBIA","53.28","-121.45","944.90","1090R0R","","","1974","1990","","","1974","1990","1974","1990"
"BOWSER","BRITISH COLUMBIA","49.45","-124.67","3.00","1020910","","","1957","1958","","","1957","1958","1957","1958"
"BOYLE","ALBERTA","54.57","-112.87","670.60","3060780","","","1956","1958","","","1956","1958","1956","1958"
"BRABANT LAKE","SASKATCHEWAN","56.12","-103.75","381.00","4060790","","","1966","1973","","","1966","1973","1966","1973"
"BRACEBRIDGE","ONTARIO","45.05","-79.32","250.00","6110851","","","1984","1989","","","1984","1989","1984","1989"
"BRACEBRIDGE ONT HYDRO","ONTARIO","45.03","-79.30","266.70","6110854","","","1983","1987","","","1983","1987","1983","1987"
"BRACKEN CDA EPF","SASKATCHEWAN","49.20","-108.10","888.20","4030800","","","1951","1972","","","1951","1972","1951","1972"
"BRACKEN NORTH","SASKATCHEWAN","49.38","-108.12","914.40","4030805","","","1973","1977","","","1973","1977","1973","1977"
"BRACKLEY BEACH","PRINCE EDWARD ISLAND","46.42","-63.33","48.50","8300200","","","1952","1956","","","1952","1956","1952","1956"
"BRADFORD","ONTARIO","44.10","-79.50","220.70","6150857","","","1951","1957","","","1951","1957","1951","1957"
"BRADFORD 2","ONTARIO","44.12","-79.53","221.00","6150858","","","1954","1958","","","1954","1958","1954","1958"
"BRADFORD BROWN","ONTARIO","44.15","-79.57","292.60","6110859","","","1972","1976","","","1972","1976","1972","1976"
"BRADFORD HIGH SCHOOL","ONTARIO","44.12","-79.50","251.50","6150860","","","1960","1962","","","1960","1962","1960","1962"
"BRADFORD MUCK RESEARCH","ONTARIO","44.03","-79.60","221.00","6150863","","","1974","1998","","","1974","1998","1974","1998"
"BRADFORD OAC","ONTARIO","44.10","-79.60","243.80","6150865","","","1960","1966","","","1960","1966","1960","1966"
"BRADFORD ODA","ONTARIO","44.12","-79.55","221.00","6150866","","","1966","1968","","","1966","1968","1966","1967"
"BRADFORD SPRINGDALE","ONTARIO","44.03","-79.62","221.00","6150867","","","1966","1982","","","1966","1982","1966","1981"
"BRAEBURN","YUKON TERRITORY","61.47","-135.78","716.30","2100167","","","1974","1995","","","1974","1995","1974","1995"
"BRAESHORE","NOVA SCOTIA","45.70","-62.65","7.60","8200590","","","1975","1984","","","1975","1984","1975","1984"
"BRAGG CREEK WEST","ALBERTA","50.97","-114.62","1371.90","3030796","","","1975","1985","","","1975","1985","1975","1985"
"BRAINTREE 1","MANITOBA","49.63","-95.57","315.50","5030334","","","1983","1984","","","1983","1984","1983","1984"
"BRAINTREE 2","MANITOBA","49.60","-95.62","315.50","5030335","","","1983","1995","","","1983","1995","1983","1995"
"BRALORNE","BRITISH COLUMBIA","50.78","-122.82","1015.00","1080930","","","1924","1963","","","1924","1963","1924","1963"
"BRAMALEA","ONTARIO","43.68","-79.72","205.70","6150898","","","1967","1971","","","1967","1971","1967","1971"
"BRAMPTON","ONTARIO","43.70","-79.77","221.00","6150913","","","1870","1964","","","1870","1964","1871","1964"
"BRAMPTON AIRPORT","ONTARIO","43.77","-79.88","274.30","6150914","","","1991","1992","","","1991","1992","1991","1992"
"BRAMPTON MOE","ONTARIO","43.67","-79.70","182.90","6150916","","","1962","1993","","","1962","1993","1963","1993"
"BRANCH","NEWFOUNDLAND","46.88","-53.97","11.80","8400666","","","1983","2017","","","1983","2017","1983","2005"
"BRANDON #1 WINTER BAY","MANITOBA","49.83","-99.98","396.00","5010498","","","1987","2002","","","1987","2002","1987","2002"
"BRANDON A","MANITOBA","49.91","-99.95","409.40","5010480","71140","YBR","1941","2012","1958","2012","1941","2012","1941","2012"
"BRANDON A","MANITOBA","49.91","-99.95","409.30","5010481","71140","YBR","2012","2022","2012","2022","2012","2022","",""
